{"fuente":"GCBA – BA Obras · AGC · Sec. Desarrollo Urbano","n_obras_actuales":558,"monto_total_actual_M":11918790.8,"obras_actuales":[{"nombre":"Trabajos de obra nueva - Esc. de Danzas N° 2 \"Jorge Donn\" - Lope de Vega y Murat","jurisdiccion":"Ministerio de Educación","estado":"Finalizada","empresa":"Mediterráneo","fecha_inicio":"2021-11-25","avance_pct":1.0,"monto":6279865000.0,"lat":null,"lon":null,"gestion":"Nueva gestión"},{"nombre":"REHABILITACION Y ADECUACION TECNOLOGICA CASA ALTOS DE ELORRIAGA II -MUSEO DEL HU","jurisdiccion":"Ministerio de Cultura","estado":"En curso","empresa":"nan","fecha_inicio":"2023-05-02","avance_pct":0.0,"monto":2704592550.0,"lat":-34.61046,"lon":-58.37435,"gestion":"Nueva gestión"},{"nombre":"INSTALACIONES ELEC.SANIT.GAS.ELECTROMECANICA EN CTROS.SOCIO EDUCATIVOS SAN MARTÍ","jurisdiccion":"Jefatura de Gabinete de Ministros","estado":"Finalizada","empresa":"CUNUMI SA","fecha_inicio":"2022-11-01","avance_pct":100.0,"monto":1698500130.0,"lat":-34.63315,"lon":-58.45038,"gestion":"Nueva gestión"},{"nombre":"READ DE TERRENO, DEMOLICIÓN,CONSTRUCC Y MEJORAMIENTO DE VIVIENDAS EN SECTOR COMU","jurisdiccion":"Ministerio de Desarrollo Humano y Hábitat","estado":"Finalizada","empresa":"Demoliciones Mitre SRL","fecha_inicio":"2022-12-12","avance_pct":1.0,"monto":1411802070.0,"lat":-34.57874,"lon":-58.38787,"gestion":"Nueva gestión"},{"nombre":"PARQUE PUNTA CARRASCO","jurisdiccion":"Jefatura de Gabinete de Ministros","estado":"Finalizada","empresa":"NAKU CONSTRUCCIONES S.R.L.-ALTOTE S.A.-PARQUE CARRASCO-UT","fecha_inicio":"2023-05-02","avance_pct":100.0,"monto":9482583390.0,"lat":null,"lon":null,"gestion":"Nueva gestión"},{"nombre":"INSTITUTO SUPERIOR DE ARTE-TEATRO COLON.BLOQUE \"C\"","jurisdiccion":"Ministerio de Cultura","estado":"Rescisión","empresa":"CUNUMI S.A.","fecha_inicio":"2023-04-24","avance_pct":6.6,"monto":8478445000.0,"lat":null,"lon":null,"gestion":"Nueva gestión"},{"nombre":"CESAC 15 Remodelación Ex Padelai","jurisdiccion":"Ministerio de Salud","estado":"En ejecución","empresa":"CUNUMI S.A.","fecha_inicio":"2023-01-16","avance_pct":12.0,"monto":3388820000.0,"lat":-34.62106,"lon":-58.36978,"gestion":"Nueva gestión"},{"nombre":"Relocalización CeSAC N° 8","jurisdiccion":"Ministerio de Salud","estado":"En ejecución","empresa":"PMP CPNSTRUCCIONES","fecha_inicio":"2023-06-02","avance_pct":58.0,"monto":4700541120.0,"lat":null,"lon":null,"gestion":"Nueva gestión"},{"nombre":"CASA DE MEDIO CAMINO RUY DIAZ DE GUZMAN","jurisdiccion":"Ministerio de Salud","estado":"En ejecución","empresa":"CUNUMI S.A.","fecha_inicio":"2023-07-17","avance_pct":null,"monto":4328633700.0,"lat":-34.63244,"lon":-58.37148,"gestion":"Nueva gestión"},{"nombre":"DEMOLICIÓN, RELLENO Y LIMPIEZA DEL PREDIO DE LA CALLE GALVÁN 3463","jurisdiccion":"Ministerio de Salud","estado":"En ejecución","empresa":"DEMOLICIONES MITRE","fecha_inicio":"2024-06-10","avance_pct":null,"monto":2405851990.0,"lat":null,"lon":null,"gestion":"Nueva gestión"},{"nombre":"CASA DE MEDIO CAMINO RUY DIAZ DE GUZMAN","jurisdiccion":"Ministerio de Salud","estado":"En ejecución","empresa":"CUNUMI S.A.","fecha_inicio":"2023-07-17","avance_pct":19.6,"monto":4328633700.0,"lat":-34.63244,"lon":-58.37148,"gestion":"Nueva gestión"},{"nombre":"Remodelacion y puesta en valor del edificio de la DG de Cuerpo de Agentes de Trá","jurisdiccion":"Ministerio de Justicia y Seguridad","estado":"Finalizada","empresa":"UNNO CONSTRUCCIONES S.R.L","fecha_inicio":"2023-11-07","avance_pct":100.0,"monto":903361580.0,"lat":-3.46324,"lon":-5.84411,"gestion":"Nueva gestión"},{"nombre":"Tablero Eléctrico Herrera 2424","jurisdiccion":"Ministerio de Seguridad","estado":"En proyecto","empresa":"nan","fecha_inicio":"2024-12-26","avance_pct":0.0,"monto":2544440080.0,"lat":-3.46545,"lon":-58.37409,"gestion":"Nueva gestión"},{"nombre":"REFORMA INTEGRAL DEL REFUGIO MARIQUITA SÁNCHEZ DE THOMPSON","jurisdiccion":"Ministerio de Desarrollo Humano y Hábitat","estado":"En ejecución","empresa":"ECOHM SRL","fecha_inicio":"2023-05-02","avance_pct":0.6,"monto":4103762350.0,"lat":-34.63054,"lon":-5.83697,"gestion":"Nueva gestión"},{"nombre":"REFORMA INTEGRAL CASA JUANA MANSO, CIUDAD AUTÓNOMA DE BUENOS AIRES","jurisdiccion":"Ministerio de Desarrollo Humano y Hábitat","estado":"En ejecución","empresa":"BLUE STEEL S. A.","fecha_inicio":"2023-05-02","avance_pct":0.8,"monto":1895181270.0,"lat":-3.46332,"lon":-5.85062,"gestion":"Nueva gestión"},{"nombre":"REFORMA INTEGRAL CENTRO DE DESARROLLO INFANTIL (CEDI) QUINQUELA MARTÍN","jurisdiccion":"Ministerio de Desarrollo Humano y Hábitat","estado":"Finalizada","empresa":"LOGISTICAL SA","fecha_inicio":"2023-08-17","avance_pct":1.0,"monto":1368165000.0,"lat":-3.46389,"lon":-5.83605,"gestion":"Nueva gestión"},{"nombre":"Mejora edilicia - Esc. Prim. Com. Nº 1 y JIN C (EPCJS 01/01°) DE 1 - UG 2 - Ayac","jurisdiccion":"Ministerio de Educación","estado":"En licitación","empresa":"Caffard SRL","fecha_inicio":"2024-07-26","avance_pct":0.0,"monto":10931958300.0,"lat":null,"lon":null,"gestion":"Nueva gestión"},{"nombre":"Obras vs - EPC N° 10, JIN A (EPCJS 10/17°) DE 17 UG 11 - Helguera 2435","jurisdiccion":"Ministerio de Educación","estado":"En ejecución","empresa":"Buromahtik S.A.","fecha_inicio":"2024-07-15","avance_pct":0.0,"monto":3488398230.0,"lat":null,"lon":null,"gestion":"Nueva gestión"},{"nombre":"Tareas vs. - Esc. Sup. Ed. Art.en Art. Vis./ Com. Nº23 - DE 13 UG 10 - J. B. Alb","jurisdiccion":"Ministerio de Educación","estado":"En ejecución","empresa":"SES SOCIEDAD ANONIMA","fecha_inicio":"2024-07-11","avance_pct":0.0,"monto":1257857760.0,"lat":null,"lon":null,"gestion":"Nueva gestión"},{"nombre":"Obras vs. - Esc. de Enseñanza Media N°2 ¿E. Guevara¿ - D.E 13 - UG 9 - Lacarra 1","jurisdiccion":"Ministerio de Educación","estado":"En ejecución","empresa":"TALA CONSTRUCCIONES S.A","fecha_inicio":"2024-07-04","avance_pct":0.0,"monto":4944440030.0,"lat":null,"lon":null,"gestion":"Nueva gestión"},{"nombre":"Colegio N°1, Esc. de Com. N°36, Cent. Ed. de Niv. Sec. N° 18 UG 1 DE 3 - Av. San","jurisdiccion":"Ministerio de Educación","estado":"En ejecución","empresa":"VILLAREX S.A.","fecha_inicio":"2024-07-01","avance_pct":0.0,"monto":5257345020.0,"lat":null,"lon":null,"gestion":"Nueva gestión"},{"nombre":"Obras vs. - Esc. de Com. Nº 32 ¿J. L. Suarez¿ DE 13 UG 9 - Acassuso 5860/ 6138","jurisdiccion":"Ministerio de Educación","estado":"En ejecución","empresa":"BLUE STEEL S. A.","fecha_inicio":"2024-06-26","avance_pct":0.0,"monto":5482213820.0,"lat":null,"lon":null,"gestion":"Nueva gestión"},{"nombre":"Obras vs. - Esc. Prim. Com. 17 - JIN C(EPCjc 17/02°) DE 2 UG 6 - Av. A. Gallardo","jurisdiccion":"Ministerio de Educación","estado":"En ejecución","empresa":"ESTILO QUARZO SRL","fecha_inicio":"2024-06-18","avance_pct":0.0,"monto":4441051170.0,"lat":null,"lon":null,"gestion":"Nueva gestión"},{"nombre":"Tareas vs. - Esc. Primaria Común Nº 15 \"Prov. de Santa Fé\" y Jardín de Inf. - Pi","jurisdiccion":"Ministerio de Educación","estado":"En ejecución","empresa":"ALTOTE S.A.","fecha_inicio":"2024-06-12","avance_pct":0.0,"monto":2445277490.0,"lat":null,"lon":null,"gestion":"Nueva gestión"},{"nombre":"Obras vs. - Esc. Prim. Com. Nº 14 - JIC N°10 - D.E. 10 - UG 12 - Roque Pérez 354","jurisdiccion":"Ministerio de Educación","estado":"En ejecución","empresa":"AVR Construcciones S.R.L.","fecha_inicio":"2024-06-11","avance_pct":0.0,"monto":8062612100.0,"lat":null,"lon":null,"gestion":"Nueva gestión"},{"nombre":"Obras vs. - EPC N° 3 Superv Educ Prim Zona E Region IX D.E. 10 UG 13 - Moldes 18","jurisdiccion":"Ministerio de Educación","estado":"En ejecución","empresa":"ALTOTE S.A.","fecha_inicio":"2024-06-04","avance_pct":0.0,"monto":8852673120.0,"lat":null,"lon":null,"gestion":"Nueva gestión"},{"nombre":"Mejora edilicia - Esc. Prim N°12 \"H. Brumana\" - DE 14 UG 15 - Fitz Roy 171","jurisdiccion":"Ministerio de Educación","estado":"En ejecución","empresa":"Construcciones de Hormigón SA","fecha_inicio":"2024-06-04","avance_pct":0.0,"monto":2994750000.0,"lat":null,"lon":null,"gestion":"Nueva gestión"},{"nombre":"Relevamiento de ascensores - INST. DE EDUCACION SUPERIOR N° 1 D.E. 1° - Av. Córd","jurisdiccion":"Ministerio de Educación","estado":"En ejecución","empresa":"KIR S.R.L.","fecha_inicio":"2024-05-16","avance_pct":0.8,"monto":1350364480.0,"lat":null,"lon":null,"gestion":"Nueva gestión"},{"nombre":"Tareas vs - JII N° 1/4 \"Benito Q. Martin\" - DE 4 UG 4 - Gral. A. de Lamadrid 648","jurisdiccion":"Ministerio de Educación","estado":"En ejecución","empresa":"Monge Construcciones S.R.L.","fecha_inicio":"2024-04-23","avance_pct":0.6,"monto":398211630.0,"lat":null,"lon":null,"gestion":"Nueva gestión"},{"nombre":"Obras vs - Inst. de Form. Téc. Sup. N°15 ¿ DE N°09 ¿ Loyola 1500","jurisdiccion":"Ministerio de Educación","estado":"En ejecución","empresa":"Sighma Global Solutions SRL","fecha_inicio":"2024-04-23","avance_pct":0.0,"monto":1942371440.0,"lat":null,"lon":null,"gestion":"Nueva gestión"},{"nombre":"Ampliación - Esc. Prim. Com. N° 27 ¿P. Rodríguez\" DE 15 UG 15 Andonaegui 1532","jurisdiccion":"Ministerio de Educación","estado":"En ejecución","empresa":"Dagresa Vial Construcciones SRL","fecha_inicio":"2024-02-22","avance_pct":0.0,"monto":3657764640.0,"lat":null,"lon":null,"gestion":"Nueva gestión"},{"nombre":"Tareas vs - Esc. Prim. Común N° 19 ¿Galicia¿, D.E. 7 UG 6 - Luis Viale 1052","jurisdiccion":"Ministerio de Educación","estado":"En ejecución","empresa":"SOMOLINOS CONSTRUCCIONES SRL","fecha_inicio":"2024-02-15","avance_pct":0.0,"monto":3090927430.0,"lat":null,"lon":null,"gestion":"Nueva gestión"},{"nombre":"Mej. ed.-Esc Téc 25/Prim. Com. 5-JII 6/ Med. N° 3-Cuba 2410/Larrazábal 4520/ Mer","jurisdiccion":"Ministerio de Educación","estado":"En ejecución","empresa":"WODEN S.A.","fecha_inicio":"2024-02-15","avance_pct":0.0,"monto":21902405570.0,"lat":null,"lon":null,"gestion":"Nueva gestión"},{"nombre":"Mej. ed.-Esc Téc 25/Prim. Com. 5-JII 6/ Med. N° 3-Cuba 2410/Larrazábal 4520/ Mer","jurisdiccion":"Ministerio de Educación","estado":"En ejecución","empresa":"nan","fecha_inicio":"2024-02-15","avance_pct":0.0,"monto":21902405570.0,"lat":null,"lon":null,"gestion":"Nueva gestión"},{"nombre":"Mej. ed.-Esc Téc 25/Prim. Com. 5-JII 6/ Med. N° 3-Cuba 2410/Larrazábal 4520/ Mer","jurisdiccion":"Ministerio de Educación","estado":"En ejecución","empresa":"nan","fecha_inicio":"2024-02-15","avance_pct":0.0,"monto":21902405570.0,"lat":null,"lon":null,"gestion":"Nueva gestión"},{"nombre":"Refunc. vivienda casero - Ejec. de cerco perim.- JIN.\"A\" - D.E. 9º - UG 14 - Arc","jurisdiccion":"Ministerio de Educación","estado":"En ejecución","empresa":"AVR Construcciones S.R.L.","fecha_inicio":"2024-01-03","avance_pct":0.5,"monto":1138876370.0,"lat":null,"lon":null,"gestion":"Nueva gestión"},{"nombre":"Rep. vs - EPC N°07 del Cent. Y JIN C (EPCJC 07/02°) - D.E.2 - UG 6 - Río de Jane","jurisdiccion":"Ministerio de Educación","estado":"En ejecución","empresa":"Dagresa Vial Construcciones SRL","fecha_inicio":"2024-01-02","avance_pct":0.2,"monto":1825958770.0,"lat":null,"lon":null,"gestion":"Nueva gestión"},{"nombre":"Obras vs- Esc. Prim. Com. N° 6 / JII N° 2 - DE 1 - UG 1 - Juncal 690/ Basavilbas","jurisdiccion":"Ministerio de Educación","estado":"En ejecución","empresa":"BLUE STEEL S. A.","fecha_inicio":"2023-12-27","avance_pct":0.2,"monto":10299999160.0,"lat":null,"lon":null,"gestion":"Nueva gestión"},{"nombre":"Tareas vs. - Centro de activ. inf. y juveniles DE 2 UG 5 - Sarmiento 4041","jurisdiccion":"Ministerio de Educación","estado":"En ejecución","empresa":"AVR Construcciones S.R.L.","fecha_inicio":"2023-12-20","avance_pct":0.6,"monto":1140038760.0,"lat":null,"lon":null,"gestion":"Nueva gestión"},{"nombre":"Ins. eléct. - Esc. Prim. Com. ¿Á. Gallardo¿ Nº21/ JIN C D.E. N°01 UG 02 ¿ Ayacuc","jurisdiccion":"Ministerio de Educación","estado":"En ejecución","empresa":"Dagresa Vial Construcciones SRL","fecha_inicio":"2023-12-20","avance_pct":0.5,"monto":1227670500.0,"lat":null,"lon":null,"gestion":"Nueva gestión"},{"nombre":"Tareas vs. - Esc. para niñ. y jov. con plurd. mot. Nº 11 - DE 15 UG 12 - Quesada","jurisdiccion":"Ministerio de Educación","estado":"En ejecución","empresa":"Caffard SRL","fecha_inicio":"2023-12-08","avance_pct":0.2,"monto":2174891720.0,"lat":null,"lon":null,"gestion":"Nueva gestión"},{"nombre":"Mej. edil. - Esc. p/ Niñ., Jóv. y Adult. con Dis. Ment. y Form Int. Nº2 -DE 17-L","jurisdiccion":"Ministerio de Educación","estado":"En ejecución","empresa":"GRUPO VARSOVIA S.R.L.","fecha_inicio":"2023-12-01","avance_pct":0.3,"monto":2977086340.0,"lat":null,"lon":null,"gestion":"Nueva gestión"},{"nombre":"Obra a compl. - Anexo - Esc. Esp. Nº 18 ¿C. M. E. de Cano¿ DE 15 UG 15 - A. Thom","jurisdiccion":"Ministerio de Educación","estado":"En ejecución","empresa":"Caffard SRL","fecha_inicio":"2023-11-30","avance_pct":0.1,"monto":1633144940.0,"lat":null,"lon":null,"gestion":"Nueva gestión"},{"nombre":"Mejora ed. - Inst. Sup. de Ed. Física \" Prof. F. W. Dickens\" DE 8 UG 7 - Curapal","jurisdiccion":"Ministerio de Educación","estado":"En ejecución","empresa":"MONGE CONSTRUCCIONES S.R.L.","fecha_inicio":"2023-11-29","avance_pct":0.2,"monto":3000345130.0,"lat":null,"lon":null,"gestion":"Nueva gestión"},{"nombre":"Mejora edil. - Esc. Esp. de Rec. N°20 - DE 20 UG 8 - 2 de Abril de 1982 6950 esq","jurisdiccion":"Ministerio de Educación","estado":"En ejecución","empresa":"WODEN S.A.","fecha_inicio":"2023-11-25","avance_pct":0.2,"monto":3467844450.0,"lat":null,"lon":null,"gestion":"Nueva gestión"},{"nombre":"Mej. ed. -Esc. Prim. Com. 12 / J.I.I. 17 DE 21 UG 8 - J. B. Zubiaur 4180/ 23 de","jurisdiccion":"Ministerio de Educación","estado":"En ejecución","empresa":"WODEN S.A.","fecha_inicio":"2023-11-25","avance_pct":0.3,"monto":5146597850.0,"lat":null,"lon":null,"gestion":"Nueva gestión"},{"nombre":"Inst. elèc. - Esc. Prim. Común N°09 ¿J. M Torres\" - JIN B D.E.20 UG 9 - Larrazáb","jurisdiccion":"Ministerio de Educación","estado":"En ejecución","empresa":"Caffard SRL","fecha_inicio":"2023-11-21","avance_pct":0.6,"monto":1318927200.0,"lat":null,"lon":null,"gestion":"Nueva gestión"},{"nombre":"Inst. eléctrica - Esc. Prim. Com. N°02 ¿Australia¿ D.E. N°09 UG 15 - Gurruchaga","jurisdiccion":"Ministerio de Educación","estado":"En ejecución","empresa":"GRUPO VARSOVIA S.R.L.","fecha_inicio":"2023-11-21","avance_pct":0.6,"monto":2179240790.0,"lat":null,"lon":null,"gestion":"Nueva gestión"},{"nombre":"Mejora edilicia - Jardín de Infantes Integral N° 14 DE 21 UG 8 - Dr. A. Bermejo","jurisdiccion":"Ministerio de Educación","estado":"En ejecución","empresa":"MEJORES HOSPITALES SA","fecha_inicio":"2023-11-14","avance_pct":0.8,"monto":627000000.0,"lat":null,"lon":null,"gestion":"Nueva gestión"},{"nombre":"Inst. eléc. - Esc. Prim. Com. Nº 19 \"Prov. del Chubut\"/ JIN D - DE 9 UG 15 - Hum","jurisdiccion":"Ministerio de Educación","estado":"En ejecución","empresa":"FILIP S.A.","fecha_inicio":"2023-11-07","avance_pct":1.0,"monto":1320000000.0,"lat":null,"lon":null,"gestion":"Nueva gestión"},{"nombre":"Instalación Eléctrica de Escuela Primaria Común N° 08 DE 15 UG 12 - Juramento 48","jurisdiccion":"Ministerio de Educación","estado":"En ejecución","empresa":"Dagresa Vial Construcciones SRL","fecha_inicio":"2023-11-01","avance_pct":0.6,"monto":1247313540.0,"lat":null,"lon":null,"gestion":"Nueva gestión"},{"nombre":"Ampliación - Esc. Inf. Nº 11 DE 5 UG 4 \"Paso de Los Patos\" - Los Patos 3004","jurisdiccion":"Ministerio de Educación","estado":"En ejecución","empresa":"Sighma Global Solutions SRL","fecha_inicio":"2023-11-01","avance_pct":0.5,"monto":1476113100.0,"lat":null,"lon":null,"gestion":"Nueva gestión"},{"nombre":"Mejoras edil. - Esc. Téc. N°17 \" Brig. Gral. Cornelio Saavedra\" - DE 13 UG 9 - L","jurisdiccion":"Ministerio de Educación","estado":"En ejecución","empresa":"Caffard SRL","fecha_inicio":"2023-10-20","avance_pct":0.5,"monto":3941175790.0,"lat":null,"lon":null,"gestion":"Nueva gestión"},{"nombre":"Mej. edil. - Esc. p/ Niñ., Jóv. y Adult. con Dis. Ment. y Form Int. Nº2 -DE 17-L","jurisdiccion":"Ministerio de Educación","estado":"En ejecución","empresa":"HIT CONSTRUCCIONES S.A.","fecha_inicio":"2023-12-01","avance_pct":0.7,"monto":2977086340.0,"lat":null,"lon":null,"gestion":"Nueva gestión"},{"nombre":"Refunc. y refacc.- ENS N°8 \"Pres. J. A. Roca\"- DE 6 - UG 3 - La Rioja 1042 / C.","jurisdiccion":"Ministerio de Educación","estado":"En ejecución","empresa":"WODEN S.A.","fecha_inicio":"2023-09-28","avance_pct":0.5,"monto":2035163160.0,"lat":null,"lon":null,"gestion":"Nueva gestión"},{"nombre":"Ref. vs. - Esc. Prim. Com. N°8 y J. I. I. N° 4 DE 10 UG 13 - Mendoza 1000 / Húsa","jurisdiccion":"Ministerio de Educación","estado":"En ejecución","empresa":"Dagresa Vial Construcciones SRL","fecha_inicio":"2023-09-15","avance_pct":0.1,"monto":2792879820.0,"lat":null,"lon":null,"gestion":"Nueva gestión"},{"nombre":"Amp. com. y núc. sanit. - J. I. F. N°14 D.E. 20 UG 9 - Monte 6865/ Yrupé 6835","jurisdiccion":"Ministerio de Educación","estado":"En ejecución","empresa":"AVR Construcciones S.R.L.","fecha_inicio":"2023-09-13","avance_pct":0.7,"monto":1076116450.0,"lat":null,"lon":null,"gestion":"Nueva gestión"},{"nombre":"Tareas vs. -Esc. Prim. Com. Nº 11/JIN B y Sup. Esc .DE 6 - Humberto 1º 3171","jurisdiccion":"Ministerio de Educación","estado":"En ejecución","empresa":"GRUPO VARSOVIA S.R.L.","fecha_inicio":"2023-09-13","avance_pct":0.8,"monto":2439504180.0,"lat":null,"lon":null,"gestion":"Nueva gestión"},{"nombre":"Tareas vs. - Biblioteca Antonio Devoto - Superv. Prim. - DE 17 - UG 11 - Bahía B","jurisdiccion":"Ministerio de Educación","estado":"En ejecución","empresa":"SERVEC S.A.","fecha_inicio":"2023-09-04","avance_pct":0.7,"monto":638614930.0,"lat":null,"lon":null,"gestion":"Nueva gestión"},{"nombre":"Adec. edilicia - Esc Primaria Común N°24 \"Padre Castañeda\" D.E 12 - UG 10 - Moró","jurisdiccion":"Ministerio de Educación","estado":"En ejecución","empresa":"WODEN S.A.","fecha_inicio":"2023-09-02","avance_pct":0.7,"monto":1819222470.0,"lat":null,"lon":null,"gestion":"Nueva gestión"},{"nombre":"Instal. eléct.a - Esc. Prim. N°16 ¿R. Dominicana\" - JIN C - D.E.N°10 UG 13 - Con","jurisdiccion":"Ministerio de Educación","estado":"En ejecución","empresa":"MONGE CONSTRUCCIONES S.R.L.","fecha_inicio":"2023-08-25","avance_pct":0.8,"monto":871541560.0,"lat":null,"lon":null,"gestion":"Nueva gestión"},{"nombre":"Mejoras edil. - Esc. Prim. Com. N° 4 \"Cnel. C. F. Brandsen\" DE 10 UG 13 - J. Azu","jurisdiccion":"Ministerio de Educación","estado":"En ejecución","empresa":"SERVEC S.A.","fecha_inicio":"2023-08-23","avance_pct":0.9,"monto":929499590.0,"lat":null,"lon":null,"gestion":"Nueva gestión"},{"nombre":"Acces. y refunc. - Esc. Prim. Com. Nº 22 DE 10 UG 13 - Franklin D. Roosevelt 151","jurisdiccion":"Ministerio de Educación","estado":"En ejecución","empresa":"RYELSA SRL","fecha_inicio":"2023-08-01","avance_pct":0.7,"monto":625872360.0,"lat":null,"lon":null,"gestion":"Nueva gestión"},{"nombre":"Tareas vs - Esc. Prim. Com. N° 1 ¿ \"Castro Munita\" - DE 10 - UG 13 - Cuba 2039","jurisdiccion":"Ministerio de Educación","estado":"En ejecución","empresa":"Seo Construcciones S.R.L.","fecha_inicio":"2023-08-01","avance_pct":0.5,"monto":1533636790.0,"lat":null,"lon":null,"gestion":"Nueva gestión"},{"nombre":"Instal. eléc. y contra incendio - Esc. Téc. Nª 32 - DE 14 - UG 15 - Teodoro Garc","jurisdiccion":"Ministerio de Educación","estado":"En ejecución","empresa":"Dagresa Vial Construcciones SRL","fecha_inicio":"2023-07-17","avance_pct":0.4,"monto":1894123640.0,"lat":null,"lon":null,"gestion":"Nueva gestión"},{"nombre":"Refacc. vs. - Esc. Prim. Com. N° 2 - \" Francisco D. Herrera\" - DE 7 - UG 15 - Ca","jurisdiccion":"Ministerio de Educación","estado":"En ejecución","empresa":"Construcciones de Hormigón SA","fecha_inicio":"2023-05-13","avance_pct":0.8,"monto":1702898460.0,"lat":null,"lon":null,"gestion":"Nueva gestión"},{"nombre":"Reformas edil. - Ins. Sup. de Enseñanza en Lenguas Vivas DE 1 - Carlos Pellegrin","jurisdiccion":"Ministerio de Educación","estado":"En ejecución","empresa":"Construcciones de Hormigón SA","fecha_inicio":"2023-04-01","avance_pct":0.8,"monto":1086854960.0,"lat":null,"lon":null,"gestion":"Nueva gestión"},{"nombre":"Reparac. de fachada, carp., inst. term. y ob. vs. - Esc. Prim. N° 2 DE 1 - Quint","jurisdiccion":"Ministerio de Educación","estado":"En ejecución","empresa":"ESTILO QUARZO SRL","fecha_inicio":"2023-02-03","avance_pct":0.9,"monto":1392056310.0,"lat":null,"lon":null,"gestion":"Nueva gestión"},{"nombre":"Tareas varias - Esc. Téc. N° 9 \"Ing. L. A. Huergo\" - DE 7 - UG 6 - Gral. M. de G","jurisdiccion":"Ministerio de Educación","estado":"En ejecución","empresa":"WODEN S.A.","fecha_inicio":"2023-02-03","avance_pct":0.9,"monto":4053594550.0,"lat":null,"lon":null,"gestion":"Nueva gestión"},{"nombre":"DEMOLICIÓN Y OBRA NUEVA - Polideportivo Esc. N° 19 D.E. 8°,Doblas 1768/Senillosa","jurisdiccion":"Ministerio de Educación","estado":"En ejecución","empresa":"MONGE CONSTRUCCIONES S.R.L.","fecha_inicio":"2023-01-27","avance_pct":0.6,"monto":1043105360.0,"lat":null,"lon":null,"gestion":"Nueva gestión"},{"nombre":"Ampliac. edilicia - Esc. Técnica N°6 \"Fernando Fader\" - D.E Nº12 - Yerbal 2750 -","jurisdiccion":"Ministerio de Educación","estado":"En ejecución","empresa":"CUNUMI S.A.","fecha_inicio":"2023-01-10","avance_pct":0.4,"monto":3461640000.0,"lat":null,"lon":null,"gestion":"Nueva gestión"},{"nombre":"Accesib. plena y refuncional. - Esc. Prim. Com. N° 11 \"P. Vivanco\" - Oliden 2851","jurisdiccion":"Ministerio de Educación","estado":"En ejecución","empresa":"WODEN S.A.","fecha_inicio":"2023-01-06","avance_pct":0.7,"monto":1660545650.0,"lat":null,"lon":null,"gestion":"Nueva gestión"},{"nombre":"Centro de Formación Profesional N° 7 -D. E 10 - UG 13 - Ramsay 2250","jurisdiccion":"Ministerio de Educación","estado":"En ejecución","empresa":"LOGISTICAL SA","fecha_inicio":"2022-12-01","avance_pct":0.6,"monto":866864110.0,"lat":null,"lon":null,"gestion":"Nueva gestión"},{"nombre":"SOLUCIONES HABITACIONALES 3-ETAPA 2","jurisdiccion":"Ministerio de Desarrollo Económico y Producción","estado":"En ejecución","empresa":"AMG OBRAS CIVILES SA","fecha_inicio":"2022-09-26","avance_pct":92.8,"monto":7392486520.0,"lat":-3.4572,"lon":-5.84752,"gestion":"Nueva gestión"},{"nombre":"PUESTA EN VALOR Y ADECUACION TECNOLOGICA PALACIO CECI","jurisdiccion":"Ministerio de Desarrollo Económico y Producción","estado":"Finalizada","empresa":"HIT CONSTRUCCIONES S.A.","fecha_inicio":"2023-05-02","avance_pct":100.0,"monto":5649794890.0,"lat":-3.45986,"lon":-5.85157,"gestion":"Nueva gestión"},{"nombre":"VESTUARIOS E ILUMINACIÓN DEPORTIVA CANCHA DE HOCKEY POLIDEPORTIVO J.B. ALBERDI","jurisdiccion":"Jefatura de Gabinete de Ministros","estado":"Finalizada","empresa":"MONGE CONSTRUCCIONES","fecha_inicio":"2023-05-02","avance_pct":74.2,"monto":1739198670.0,"lat":-34.66046,"lon":-58.50229,"gestion":"Nueva gestión"},{"nombre":"RENOVACION DE INSTALACIONES EDIFICIO REGISTRO CIVIL-ETAPA 1","jurisdiccion":"Ministerio de Gobierno","estado":"Finalizada","empresa":"SOLUCIONES TERMOHIDROFUGAS S.R.L.","fecha_inicio":"2023-08-22","avance_pct":100.0,"monto":2978287210.0,"lat":-3.45999,"lon":-5.83864,"gestion":"Nueva gestión"},{"nombre":"DEMOLICION Y RECONSTRUCCION PAQUETE DE CUBIERTA, SECTOR 2, GRAN PANTEON CEMENTER","jurisdiccion":"Jefatura de Gobierno","estado":"En ejecución","empresa":"DEMOLICIONES MITRE","fecha_inicio":"2023-07-24","avance_pct":null,"monto":8648921380.0,"lat":-34.64789,"lon":-58.45294,"gestion":"Nueva gestión"},{"nombre":"DEMOLICION EDIFICIO DIÓGENES TABORDA NRO. 1553","jurisdiccion":"Ministerio de Infraestructura","estado":"En proyecto","empresa":"DEMOLICIONES MITRE","fecha_inicio":"2024-08-01","avance_pct":0.0,"monto":1260121910.0,"lat":-3.46569,"lon":-5.84077,"gestion":"Nueva gestión"},{"nombre":"PUESTA EN VALOR Y ADECUACIÓN TECNOLÓGICA EDIFICIO PELLEGRINI 311/313","jurisdiccion":"Jefatura de Gabinete de Ministros","estado":"En ejecución","empresa":"URBAN BAIRES SA","fecha_inicio":"2023-11-06","avance_pct":null,"monto":18001131210.0,"lat":-3.46047,"lon":-5.83807,"gestion":"Nueva gestión"},{"nombre":"Rodriguez Peña Canil Nuevo","jurisdiccion":"Subsecretaría de Gestión Comunal","estado":"Finalizada","empresa":"ZONA VERDE","fecha_inicio":"2019-09-30","avance_pct":100.0,"monto":39489340.0,"lat":-34.59796,"lon":-58.39239,"gestion":"Nueva gestión"},{"nombre":"Barrio 31: YPF 3","jurisdiccion":"Ministerio de Desarrollo Humano y Hábitat","estado":"Finalizada","empresa":"BRICONS","fecha_inicio":"2022-04-18","avance_pct":1.0,"monto":12760000000.0,"lat":-34.5854,"lon":-58.36672,"gestion":"Nueva gestión"},{"nombre":"Noruega","jurisdiccion":"Subsecretaría de Gestión Comunal","estado":"En ejecución","empresa":"nan","fecha_inicio":"nan","avance_pct":null,"monto":null,"lat":-34.5624,"lon":-58.45854,"gestion":"Nueva gestión"},{"nombre":"Egipto","jurisdiccion":"Subsecretaría de Gestión Comunal","estado":"En ejecución","empresa":"nan","fecha_inicio":"nan","avance_pct":null,"monto":null,"lat":null,"lon":null,"gestion":"Nueva gestión"},{"nombre":"Ejecución, rehabilitación y mantenimiento de viviendas del Barrio 31, Sector 1:","jurisdiccion":"Ministerio de Desarrollo Humano y Hábitat","estado":"Desestimada","empresa":"BLUE STEEL S.A.","fecha_inicio":"2018-07-11","avance_pct":23.5,"monto":4489114690.0,"lat":null,"lon":null,"gestion":"Nueva gestión"},{"nombre":"Ejecucio?n, Rehabilitacio?n y Mantenimiento de viviendas del Barrio 31, Etapa UM","jurisdiccion":"Ministerio de Desarrollo Humano y Hábitat","estado":"Desestimada","empresa":"VILLAREX S.A. DEMOLICIONES MITRE S.R.L.","fecha_inicio":"2021-07-26","avance_pct":40.8,"monto":2358472200.0,"lat":null,"lon":null,"gestion":"Nueva gestión"},{"nombre":"Ejecucio?n, Rehabilitacio?n y Mantenimiento de viviendas del Barrio 31, Etapa UM","jurisdiccion":"Ministerio de Desarrollo Humano y Hábitat","estado":"Desestimada","empresa":"VILLAREX S.A. DEMOLICIONES MITRE S.R.L.","fecha_inicio":"2021-07-26","avance_pct":42.6,"monto":2382331960.0,"lat":null,"lon":null,"gestion":"Nueva gestión"},{"nombre":"Estación Reguladora de Presión y Red Externa de Gas – Complejo Habitacional 180","jurisdiccion":"Corporación Buenos Aires Sur","estado":"Paralizada","empresa":"CATEGAS SRL","fecha_inicio":"2022-07-01","avance_pct":73.6,"monto":1297634160.0,"lat":-34.66492,"lon":-58.44996,"gestion":"Nueva gestión"},{"nombre":"Red Interna de Gas - Complejo Habitacional 180 Viviendas","jurisdiccion":"Corporación Buenos Aires Sur","estado":"Paralizada","empresa":"CATEGAS SRL","fecha_inicio":"2022-07-01","avance_pct":45.7,"monto":611872770.0,"lat":-34.66492,"lon":-58.44996,"gestion":"Nueva gestión"},{"nombre":"Rivadavia","jurisdiccion":"Subsecretaría de Gestión Comunal","estado":"En ejecución","empresa":"nan","fecha_inicio":"nan","avance_pct":null,"monto":null,"lat":-34.61779,"lon":-58.43342,"gestion":"Nueva gestión"},{"nombre":"Mudanza ex Pedelai","jurisdiccion":"Ministerio de Salud","estado":"En ejecución","empresa":"CUNUMI S.A.","fecha_inicio":"2023-01-16","avance_pct":38.0,"monto":3388820000.0,"lat":-34.6208,"lon":-58.36929,"gestion":"Nueva gestión"},{"nombre":"Guardia Central - Relocalización y obra nueva","jurisdiccion":"Ministerio de Salud","estado":"En ejecución","empresa":"LESKO S.A.C.I.F.I.A.","fecha_inicio":"2022-11-15","avance_pct":38.0,"monto":8213367290.0,"lat":-34.64412,"lon":-58.45367,"gestion":"Nueva gestión"},{"nombre":"Padre Mugica","jurisdiccion":"Subsecretaría de Gestión Comunal","estado":"Finalizada","empresa":"nan","fecha_inicio":"nan","avance_pct":null,"monto":null,"lat":-34.68206,"lon":-58.48885,"gestion":"Nueva gestión"},{"nombre":"EJECUCIÓN, REHABILITACIÓN, MANTENIMIENTO E INTERVENCIÓN PUNTUAL EN VIVIENDAS","jurisdiccion":"Ministerio de Desarrollo Humano y Hábitat","estado":"Finalizada","empresa":"VILLAREX S.A, DEMOLICIONES MITRE S.R.L. BLUE STEEL S.A.","fecha_inicio":"2022-12-16","avance_pct":1.0,"monto":12968146320.0,"lat":-3.45846,"lon":-5.83799,"gestion":"Nueva gestión"},{"nombre":"CONSTRUCCION POLO COMERCIAL","jurisdiccion":"Ministerio de Desarrollo Humano y Hábitat","estado":"Finalizada","empresa":"Algieri","fecha_inicio":"2023-02-20","avance_pct":1.0,"monto":1108485530.0,"lat":-3.45839,"lon":-5.83759,"gestion":"Nueva gestión"},{"nombre":"Apertura de calle y ejecución de Infraestructura Manzana 30","jurisdiccion":"Ministerio de Desarrollo Humano y Hábitat","estado":"Finalizada","empresa":"Demoliciones Mitre SRL","fecha_inicio":"2022-11-01","avance_pct":1.0,"monto":1983314120.0,"lat":-3.45796,"lon":-5.83862,"gestion":"Nueva gestión"},{"nombre":"READECUACIÓN DE TERRENO, DEMOLICIÓN, CONSTRUCCIÓN Y MEJORAMIENTO DE VIVIENDAS -","jurisdiccion":"Ministerio de Desarrollo Humano y Hábitat","estado":"Finalizada","empresa":"Demoliciones Mitre SRL","fecha_inicio":"2022-12-15","avance_pct":1.0,"monto":1411802070.0,"lat":-3.45796,"lon":-5.83862,"gestion":"Nueva gestión"},{"nombre":"Palacio Ceci","jurisdiccion":"Secretaría de Transporte y Obras Públicas","estado":"En licitación","empresa":"HIT CONSTRUCCIONES","fecha_inicio":"2023-05-02","avance_pct":100.0,"monto":5649794890.0,"lat":-3.45986,"lon":-5.85157,"gestion":"Nueva gestión"},{"nombre":"Reservorio","jurisdiccion":"Secretaría de Transporte y Obras Públicas","estado":"En licitación","empresa":"En licitación","fecha_inicio":"nan","avance_pct":0.0,"monto":null,"lat":null,"lon":null,"gestion":"Nueva gestión"},{"nombre":"Registro Civil Etapa 1 Instalaciones","jurisdiccion":"Secretaría de Transporte y Obras Públicas","estado":"En licitación","empresa":"En licitación","fecha_inicio":"2023-08-14","avance_pct":0.0,"monto":1442881560.0,"lat":-3.45999,"lon":-5.83864,"gestion":"Nueva gestión"},{"nombre":"Internacion de Salud Mental 10 camas","jurisdiccion":"Ministerio de Salud","estado":"Finalizada","empresa":"SES S.A.","fecha_inicio":"2023-06-05","avance_pct":100.0,"monto":228690000.0,"lat":-34.58731,"lon":-58.47089,"gestion":"Nueva gestión"},{"nombre":"Consulta Externa","jurisdiccion":"Ministerio de Salud","estado":"En ejecución","empresa":"DYSCON S.A.","fecha_inicio":"2023-07-03","avance_pct":30.0,"monto":4000000000.0,"lat":-34.63722,"lon":-58.393,"gestion":"Nueva gestión"},{"nombre":"CENTRO REGIONAL HEMOTERAPIA","jurisdiccion":"Ministerio de Salud","estado":"En ejecución","empresa":"CUNUMI S.A.","fecha_inicio":"2023-07-17","avance_pct":19.1,"monto":17451613000.0,"lat":-34.58731,"lon":-58.47089,"gestion":"Nueva gestión"},{"nombre":"COMPLEMENTARIAS","jurisdiccion":"Ministerio de Salud","estado":"Finalizada","empresa":"TALA CONSTRUCCIONES S.A.","fecha_inicio":"2023-06-15","avance_pct":100.0,"monto":4822484660.0,"lat":-34.67375,"lon":-58.45902,"gestion":"Nueva gestión"},{"nombre":"AA Quirófanos del Pab.Mouras","jurisdiccion":"Ministerio de Salud","estado":"Finalizada","empresa":"CONTROLCLIM","fecha_inicio":"2023-05-15","avance_pct":100.0,"monto":1352047350.0,"lat":-34.64305,"lon":-58.41141,"gestion":"Nueva gestión"},{"nombre":"AA Quirofanos 1er etapa (8vo piso)","jurisdiccion":"Ministerio de Salud","estado":"Adjudicada","empresa":"CONTROLCLIM","fecha_inicio":"2023-06-09","avance_pct":null,"monto":2354527200.0,"lat":-34.60887,"lon":-58.43789,"gestion":"Nueva gestión"},{"nombre":"Tendido de Red Interna de Agua Potable en Complejo Habitacional 180 Viviendas","jurisdiccion":"Corporación Buenos Aires Sur","estado":"Adjudicada","empresa":"Jorge Canelles Ltda","fecha_inicio":"2023-09-18","avance_pct":null,"monto":203425340.0,"lat":-34.66492,"lon":-58.44996,"gestion":"Nueva gestión"},{"nombre":"Cerco Barrio Olímpico - Sector Lago Sur - Ex Parque Ciudad","jurisdiccion":"Corporación Buenos Aires Sur","estado":"Adjudicada","empresa":"COOPSE Ltda","fecha_inicio":"nan","avance_pct":0.0,"monto":341213450.0,"lat":-34.67564,"lon":-58.45431,"gestion":"Nueva gestión"},{"nombre":"Demolición Edificio Sanidad Ex Villa Olímpica - Barrio Olímpico","jurisdiccion":"Corporación Buenos Aires Sur","estado":"Adjudicada","empresa":"HERRERIA Y TECNICAS MECANICAS LTDA","fecha_inicio":"nan","avance_pct":0.0,"monto":543750410.0,"lat":-34.67564,"lon":-58.45431,"gestion":"Nueva gestión"},{"nombre":"Escuela de Educación Media Nº 2 - D.E.Nº 20 - Cañada de Gómez Nº 3850","jurisdiccion":"Corporación Buenos Aires Sur","estado":"Adjudicada","empresa":"PIXEL CONSTRUCCIONES SRL","fecha_inicio":"nan","avance_pct":0.0,"monto":769049340.0,"lat":-34.67556,"lon":-58.48663,"gestion":"Nueva gestión"},{"nombre":"Escuela de Educación Media Nº 1 - D.E.Nº 13 - Av. Escalada 2890","jurisdiccion":"Corporación Buenos Aires Sur","estado":"Adjudicada","empresa":"PIXEL CONSTRUCCIONES SRL","fecha_inicio":"nan","avance_pct":0.0,"monto":1179499590.0,"lat":-34.66417,"lon":-58.47026,"gestion":"Nueva gestión"},{"nombre":"Mantenimiento de Instalación Eléctrica MT/BT – Parque Roca - Sector C","jurisdiccion":"Corporación Buenos Aires Sur","estado":"Adjudicada","empresa":"HERRERIA Y TECNICAS MECANICAS LTDA","fecha_inicio":"nan","avance_pct":0.0,"monto":154982600.0,"lat":-34.67717,"lon":-58.44865,"gestion":"Nueva gestión"},{"nombre":"Aula Ambiental en Parque Roca - Sector C","jurisdiccion":"Corporación Buenos Aires Sur","estado":"Adjudicada","empresa":"nan","fecha_inicio":"nan","avance_pct":0.0,"monto":256520420.0,"lat":-34.67717,"lon":-58.44865,"gestion":"Nueva gestión"},{"nombre":"Servicio de reparación de instalación sanitaria","jurisdiccion":"Ministerio de Salud","estado":"Finalizada","empresa":"RYELSA S.R.L.","fecha_inicio":"2023-11-03","avance_pct":100.0,"monto":1058229800.0,"lat":null,"lon":null,"gestion":"Nueva gestión"},{"nombre":"MORGUE","jurisdiccion":"Ministerio de Salud","estado":"Finalizada","empresa":"AITEC INGENIERIA S.R.L","fecha_inicio":"2023-10-27","avance_pct":100.0,"monto":243565200.0,"lat":-34.67375,"lon":-58.45902,"gestion":"Nueva gestión"},{"nombre":"AA Unidad Nº 10, 3, 4 y 7 del Pabellón II","jurisdiccion":"Ministerio de Salud","estado":"Finalizada","empresa":"CONTROLCLIM","fecha_inicio":"2024-04-12","avance_pct":100.0,"monto":3100042420.0,"lat":-34.63722,"lon":-58.393,"gestion":"Nueva gestión"},{"nombre":"Renovacion electrica servicio de laboratorios","jurisdiccion":"Ministerio de Salud","estado":"Finalizada","empresa":"SES S.A.","fecha_inicio":"2023-10-19","avance_pct":100.0,"monto":616522690.0,"lat":-34.61762,"lon":-58.4094,"gestion":"Nueva gestión"},{"nombre":"AA Consultorios externos","jurisdiccion":"Ministerio de Salud","estado":"Finalizada","empresa":"CLIMACON S.R.L.","fecha_inicio":"2024-02-08","avance_pct":100.0,"monto":6121267480.0,"lat":-34.64935,"lon":-58.5158,"gestion":"Nueva gestión"},{"nombre":"AA Quirofanos","jurisdiccion":"Ministerio de Salud","estado":"Finalizada","empresa":"ECOHM S.R.L.","fecha_inicio":"2023-11-03","avance_pct":100.0,"monto":1025037400.0,"lat":null,"lon":null,"gestion":"Nueva gestión"},{"nombre":"Esterilizacion","jurisdiccion":"Ministerio de Salud","estado":"Finalizada","empresa":"MEJORES HOSPITALES","fecha_inicio":"2023-11-27","avance_pct":100.0,"monto":null,"lat":-34.59452,"lon":-58.41073,"gestion":"Nueva gestión"},{"nombre":"Reemplazo de Calderas de Calefacción y puesta en norma de instalación de gas, va","jurisdiccion":"Ministerio de Salud","estado":"En ejecución","empresa":"IDS BOILER S.R.L.","fecha_inicio":"2023-10-18","avance_pct":95.0,"monto":2600000000.0,"lat":null,"lon":null,"gestion":"Nueva gestión"},{"nombre":"Nueva Red Troncal de Distribución de Agua Fría","jurisdiccion":"Ministerio de Salud","estado":"En ejecución","empresa":"TRIDELCO","fecha_inicio":"2024-03-11","avance_pct":null,"monto":834986000.0,"lat":null,"lon":null,"gestion":"Nueva gestión"},{"nombre":"Resonador","jurisdiccion":"Ministerio de Salud","estado":"En ejecución","empresa":"PHILIPS ARGENTINA S.A.","fecha_inicio":"2024-05-22","avance_pct":null,"monto":19015507140.0,"lat":-34.64935,"lon":-58.5158,"gestion":"Nueva gestión"},{"nombre":"Servicio de reparación de instalación sanitaria","jurisdiccion":"Ministerio de Salud","estado":"Finalizada","empresa":"RYELSA S.R.L.","fecha_inicio":"2023-11-03","avance_pct":100.0,"monto":1058229800.0,"lat":null,"lon":null,"gestion":"Nueva gestión"},{"nombre":"AA Gerontologia y Cardiologia (4º y 2ºP)","jurisdiccion":"Ministerio de Salud","estado":"Neutralizada","empresa":"CONTROLCLIM","fecha_inicio":"2024-02-15","avance_pct":100.0,"monto":1819094500.0,"lat":-34.60887,"lon":-58.43789,"gestion":"Nueva gestión"},{"nombre":"Nuevo Cesac (Av. La Plata 2241)","jurisdiccion":"Ministerio de Salud","estado":"En ejecución","empresa":"KIR SRL","fecha_inicio":"2021-08-27","avance_pct":25.5,"monto":696404280.0,"lat":null,"lon":null,"gestion":"Nueva gestión"},{"nombre":"Acelerador Lineal","jurisdiccion":"Ministerio de Salud","estado":"En ejecución","empresa":"INVAP","fecha_inicio":"2023-07-17","avance_pct":25.7,"monto":null,"lat":null,"lon":null,"gestion":"Nueva gestión"},{"nombre":"Consultorios Externos","jurisdiccion":"Ministerio de Salud","estado":"En ejecución","empresa":"DYSCON S.A.","fecha_inicio":"2023-07-03","avance_pct":31.6,"monto":15741694140.0,"lat":-34.63722,"lon":-58.393,"gestion":"Nueva gestión"},{"nombre":"Potencia","jurisdiccion":"Ministerio de Salud","estado":"Neutralizada","empresa":"MEJORES HOSPITALES","fecha_inicio":"2022-05-02","avance_pct":74.0,"monto":4307970000.0,"lat":-3.45943,"lon":-5.84115,"gestion":"Nueva gestión"},{"nombre":"Comisaría Comunal 7","jurisdiccion":"Ministerio de Seguridad","estado":"En ejecución","empresa":"DEJESUS","fecha_inicio":"2022-07-12","avance_pct":65.0,"monto":10685795910.0,"lat":null,"lon":null,"gestion":"Nueva gestión"},{"nombre":"CMU Chacarita Ampliación","jurisdiccion":"Ministerio de Seguridad","estado":"En licitación","empresa":"nan","fecha_inicio":"nan","avance_pct":0.0,"monto":null,"lat":-3.45905,"lon":-58.4527,"gestion":"Nueva gestión"},{"nombre":"Barrio 31","jurisdiccion":"Ministerio de Espacio Público e Higiene Urbana","estado":"En licitación","empresa":"nan","fecha_inicio":"2024-10-11","avance_pct":null,"monto":null,"lat":-3.45853,"lon":-5.83767,"gestion":"Nueva gestión"},{"nombre":"Parque Ameghino","jurisdiccion":"Ministerio de Espacio Público e Higiene Urbana","estado":"En proyecto","empresa":"nan","fecha_inicio":"2024-10-11","avance_pct":null,"monto":null,"lat":-3.46352,"lon":-5.83943,"gestion":"Nueva gestión"},{"nombre":"Plaza Mario A. Amaya","jurisdiccion":"Ministerio de Espacio Público e Higiene Urbana","estado":"En proyecto","empresa":"nan","fecha_inicio":"2024-10-18","avance_pct":null,"monto":null,"lat":-34.62781,"lon":-58.4165,"gestion":"Nueva gestión"},{"nombre":"Parque Centenario","jurisdiccion":"Ministerio de Espacio Público e Higiene Urbana","estado":"En proyecto","empresa":"nan","fecha_inicio":"2024-10-18","avance_pct":null,"monto":null,"lat":-3.46053,"lon":-2.84347,"gestion":"Nueva gestión"},{"nombre":"Plaza Romulo Zabala","jurisdiccion":"Ministerio de Espacio Público e Higiene Urbana","estado":"En proyecto","empresa":"nan","fecha_inicio":"2024-10-01","avance_pct":null,"monto":null,"lat":-3.46573,"lon":-5.85205,"gestion":"Nueva gestión"},{"nombre":"Plaza Santa Rita","jurisdiccion":"Ministerio de Espacio Público e Higiene Urbana","estado":"En proyecto","empresa":"nan","fecha_inicio":"2024-09-25","avance_pct":null,"monto":null,"lat":-3.46104,"lon":-5.84883,"gestion":"Nueva gestión"},{"nombre":"Plaza Félix Lima","jurisdiccion":"Ministerio de Espacio Público e Higiene Urbana","estado":"En licitación","empresa":"nan","fecha_inicio":"2024-11-18","avance_pct":null,"monto":null,"lat":-3.45413,"lon":-5.84703,"gestion":"Nueva gestión"},{"nombre":"Puesta en Valor de la Morgue del Recoleta","jurisdiccion":"Ministerio de Espacio Público e Higiene Urbana","estado":"En armado de pliegos","empresa":"nan","fecha_inicio":"2024-12-08","avance_pct":null,"monto":null,"lat":null,"lon":null,"gestion":"Nueva gestión"},{"nombre":"Puesta en Valor del Peristilo de Recoleta","jurisdiccion":"Ministerio de Espacio Público e Higiene Urbana","estado":"En armado de pliegos","empresa":"nan","fecha_inicio":"2024-12-11","avance_pct":null,"monto":null,"lat":null,"lon":null,"gestion":"Nueva gestión"},{"nombre":"Puesta en Valor Galería 28","jurisdiccion":"Ministerio de Espacio Público e Higiene Urbana","estado":"En armado de pliegos","empresa":"nan","fecha_inicio":"2024-12-17","avance_pct":null,"monto":null,"lat":null,"lon":null,"gestion":"Nueva gestión"},{"nombre":"Restauracion del Muro de la Calle Azcuénaga","jurisdiccion":"Ministerio de Espacio Público e Higiene Urbana","estado":"En armado de pliegos","empresa":"nan","fecha_inicio":"2024-12-10","avance_pct":null,"monto":null,"lat":null,"lon":null,"gestion":"Nueva gestión"},{"nombre":"Puesta en Valor de la Red de Instalaciones Eléctricas","jurisdiccion":"Ministerio de Espacio Público e Higiene Urbana","estado":"En armado de pliegos","empresa":"nan","fecha_inicio":"2024-12-10","avance_pct":null,"monto":null,"lat":null,"lon":null,"gestion":"Nueva gestión"},{"nombre":"Puesta en Valor de las Galerias 17, 19 y 21 en Cementerio en Recoleta","jurisdiccion":"Ministerio de Espacio Público e Higiene Urbana","estado":"Finalizada","empresa":"nan","fecha_inicio":"2024-12-30","avance_pct":null,"monto":null,"lat":null,"lon":null,"gestion":"Nueva gestión"},{"nombre":"Ramón Falcón","jurisdiccion":"Ministerio de Espacio Público e Higiene Urbana","estado":"Finalizada","empresa":"nan","fecha_inicio":"2023-05-02","avance_pct":100.0,"monto":1791995460.0,"lat":-3.46399,"lon":-5.85092,"gestion":"Nueva gestión"},{"nombre":"Parque Lineal Honorio Pueyrredón","jurisdiccion":"Ministerio de Espacio Público e Higiene Urbana","estado":"En ejecución","empresa":"nan","fecha_inicio":"2022-02-01","avance_pct":70.0,"monto":3979729180.0,"lat":-3.46113,"lon":-5.84427,"gestion":"Nueva gestión"},{"nombre":"Mirador Obelisco","jurisdiccion":"Ministerio de Espacio Público e Higiene Urbana","estado":"En ejecución","empresa":"nan","fecha_inicio":"2023-01-02","avance_pct":20.0,"monto":20280000000.0,"lat":-3.46037,"lon":-5.83816,"gestion":"Nueva gestión"},{"nombre":"REFORMA INTEGRAL CENTRO DE ACCION FAMILAR (CAF) N° 6","jurisdiccion":"Ministerio de Desarrollo Humano y Hábitat","estado":"Finalizada","empresa":"BLUE STEEL S. A.","fecha_inicio":"2023-07-20","avance_pct":1.0,"monto":911645130.0,"lat":-34.58222,"lon":-5.83815,"gestion":"Nueva gestión"},{"nombre":"Barrio 20: Infraestructura Ejes Principales","jurisdiccion":"Instituto de la Vivienda","estado":"En licitación","empresa":"Miavasa","fecha_inicio":"2019-06-14","avance_pct":100.0,"monto":3915375870.0,"lat":-34.67412,"lon":-58.46385,"gestion":"Nueva gestión"},{"nombre":"Barrio Rodrigo Bueno: Infraestructura Borde Costero","jurisdiccion":"Instituto de la Vivienda","estado":"Finalizada","empresa":"Miavasa","fecha_inicio":"2022-02-14","avance_pct":0.7,"monto":5525472930.0,"lat":-34.62297,"lon":-58.35372,"gestion":"Nueva gestión"},{"nombre":"Nuevo plan | Escuela Técnica N°15 Maipú - Martín García","jurisdiccion":"Ministerio de Educación","estado":"En ejecución","empresa":"Mediterráneo","fecha_inicio":"2024-07-22","avance_pct":0.7,"monto":23317081510.0,"lat":null,"lon":null,"gestion":"Nueva gestión"},{"nombre":"Escuela Primaria de Creación - Est. Buenos Aires","jurisdiccion":"Ministerio de Educación","estado":"En ejecución","empresa":"LOGISTICAL S.A. - BAUGE CONSTRUCCIONES S.A. - UNIÓN TRANSITORIA","fecha_inicio":"2023-09-20","avance_pct":0.2,"monto":15997047540.0,"lat":null,"lon":null,"gestion":"Nueva gestión"},{"nombre":"ESEA DANZA AIDA MASTRAZZI","jurisdiccion":"Ministerio de Educación","estado":"En ejecución","empresa":"LOGISTICAL SA","fecha_inicio":"2023-03-06","avance_pct":0.7,"monto":931576600.0,"lat":null,"lon":null,"gestion":"Nueva gestión"},{"nombre":"Limpieza y desobstrucción del sistema cloacal - Parque Roca Sector C","jurisdiccion":"Corporación Buenos Aires Sur","estado":"En ejecución","empresa":"Herrería y Técnicas Mecánicas Ltda","fecha_inicio":"2024-04-01","avance_pct":30.0,"monto":250179300.0,"lat":-34.67717,"lon":-58.44865,"gestion":"Nueva gestión"},{"nombre":"Redes cloacales y Mantenimiento de Complejo Habitacional Los Piletones (Agosto20","jurisdiccion":"Corporación Buenos Aires Sur","estado":"En ejecución","empresa":"Jorge Canelles Ltda","fecha_inicio":"2023-01-01","avance_pct":90.0,"monto":402539030.0,"lat":-34.66345,"lon":-58.45949,"gestion":"Nueva gestión"},{"nombre":"Destacamento Policial Piletones","jurisdiccion":"Corporación Buenos Aires Sur","estado":"Finalizada","empresa":"LA UNION LTDA","fecha_inicio":"2023-12-05","avance_pct":100.0,"monto":63946280.0,"lat":-34.66448,"lon":-58.45747,"gestion":"Nueva gestión"},{"nombre":"Obra de Emergencia: Reparaciones varias en Torre 4 UF2","jurisdiccion":"Corporación Buenos Aires Sur","estado":"Finalizada","empresa":"Jorge Canelles Ltda","fecha_inicio":"2023-12-03","avance_pct":100.0,"monto":7708340.0,"lat":-34.66429,"lon":-58.45625,"gestion":"Nueva gestión"},{"nombre":"Parque Roca -Sector C - Limpieza y desobstrucción de sistema colectoras cloacale","jurisdiccion":"Corporación Buenos Aires Sur","estado":"Finalizada","empresa":"Servicios Ibarra S.R.L","fecha_inicio":"2023-04-01","avance_pct":100.0,"monto":135678120.0,"lat":-34.67717,"lon":-58.44865,"gestion":"Nueva gestión"},{"nombre":"Escuela de Educación Media Nº 2 - D.E.Nº 20 - Cañada de Gómez Nº 3850","jurisdiccion":"Corporación Buenos Aires Sur","estado":"En ejecución","empresa":"PIXEL CONSTRUCCIONES SRL","fecha_inicio":"2023-10-31","avance_pct":97.2,"monto":1029295640.0,"lat":-34.67556,"lon":-58.48663,"gestion":"Nueva gestión"},{"nombre":"Escuela de Educación Media Nº 1 - D.E.Nº 13 - Av. Escalada 2890","jurisdiccion":"Corporación Buenos Aires Sur","estado":"En ejecución","empresa":"PIXEL CONSTRUCCIONES SRL","fecha_inicio":"2023-01-13","avance_pct":74.5,"monto":1670053470.0,"lat":-34.66417,"lon":-58.47026,"gestion":"Nueva gestión"},{"nombre":"Proyecto ejecutivo estación de bombeo y regulación Ugarteche","jurisdiccion":"Ministerio de Infraestructura","estado":"Paralizada","empresa":"nan","fecha_inicio":"nan","avance_pct":0.0,"monto":1324150000.0,"lat":-34.56928,"lon":-58.4001,"gestion":"Nueva gestión"},{"nombre":"Proyecto ejecutivo para ampliación estación de bombeo del A° White","jurisdiccion":"Ministerio de Infraestructura","estado":"Paralizada","empresa":"nan","fecha_inicio":"nan","avance_pct":0.0,"monto":1101530000.0,"lat":-34.53739,"lon":-58.48691,"gestion":"Nueva gestión"},{"nombre":"Relevamiento territorial para validación de ramales en zonas anegables","jurisdiccion":"Ministerio de Infraestructura","estado":"En licitación","empresa":"nan","fecha_inicio":"nan","avance_pct":0.0,"monto":650000000.0,"lat":null,"lon":null,"gestion":"Nueva gestión"},{"nombre":"A.R.P.S.- CILDAÑEZ 3 - Ramales Zuviría y Martí 2","jurisdiccion":"Ministerio de Infraestructura","estado":"Finalizada","empresa":"nan","fecha_inicio":"nan","avance_pct":0.0,"monto":138667953340.0,"lat":null,"lon":null,"gestion":"Nueva gestión"},{"nombre":"Sistema de monitoreo para reservorios y estación de bombeo","jurisdiccion":"Ministerio de Infraestructura","estado":"Finalizada","empresa":"nan","fecha_inicio":"nan","avance_pct":0.0,"monto":2940000000.0,"lat":null,"lon":null,"gestion":"Nueva gestión"},{"nombre":"Evaluación de impacto ambiental para ramales del Sur","jurisdiccion":"Ministerio de Infraestructura","estado":"En licitación","empresa":"nan","fecha_inicio":"nan","avance_pct":0.0,"monto":null,"lat":null,"lon":null,"gestion":"Nueva gestión"},{"nombre":"A.R.P.S. - Ramales Medrano I (Larralde - Ciudad de la Paz)","jurisdiccion":"Ministerio de Infraestructura","estado":"En licitación","empresa":"nan","fecha_inicio":"nan","avance_pct":0.0,"monto":100000000.0,"lat":null,"lon":null,"gestion":"Nueva gestión"},{"nombre":"Mejora de Eficiencia A° Medrano","jurisdiccion":"Ministerio de Infraestructura","estado":"En licitación","empresa":"nan","fecha_inicio":"nan","avance_pct":0.0,"monto":60000000.0,"lat":null,"lon":null,"gestion":"Nueva gestión"},{"nombre":"AMPLIACIÓN DE LA RED SECUNDARIA DE RAMALES PARA LAS CUENCAS DE LOS ARROYOS MALDO","jurisdiccion":"Secretaría de Transporte y Obras Públicas","estado":"En ejecución","empresa":"Coarco SA","fecha_inicio":"2021-11-08","avance_pct":null,"monto":24459532670.0,"lat":null,"lon":null,"gestion":"Nueva gestión"},{"nombre":"AMPLIACIÓN DE LA RED SECUNDARIA DE RAMALES PARA LAS CUENCAS DE LOS ARROYOS MALDO","jurisdiccion":"Secretaría de Transporte y Obras Públicas","estado":"En ejecución","empresa":"Coarco SA","fecha_inicio":"2021-11-08","avance_pct":null,"monto":28541446950.0,"lat":null,"lon":null,"gestion":"Nueva gestión"},{"nombre":"Nuevos Edificios Parque Olímpico","jurisdiccion":"Subsecretaría de Proyectos y Obras","estado":"En ejecución","empresa":"Sudamericana S.A.","fecha_inicio":"2019-03-15","avance_pct":56.4,"monto":9032834120.0,"lat":-34.67265,"lon":-58.45114,"gestion":"Nueva gestión"},{"nombre":"PROYECTO DE INGENIERÍA Relocalización cañerías impulsión L1 y L2 de AySA.","jurisdiccion":"Subsecretaría de Proyectos y Obras","estado":"Anteproyecto","empresa":"C&E Construcciones S.A.","fecha_inicio":"2023-01-16","avance_pct":0.0,"monto":459848850.0,"lat":-34.56968,"lon":-58.42244,"gestion":"Nueva gestión"},{"nombre":"Nuevo CeSAC Av. La Plata 2241","jurisdiccion":"Ministerio de Salud","estado":"En ejecución","empresa":"KIR S.A.","fecha_inicio":"2021-08-27","avance_pct":null,"monto":696404280.0,"lat":null,"lon":null,"gestion":"Nueva gestión"},{"nombre":"RAMALES DE LAS CUENCAS MALDONADO, VEGA Y CILDAÑEZ LOTE 1","jurisdiccion":"Jefatura de Gabinete de Ministros","estado":"En ejecución","empresa":"COARCO SOCIEDAD ANONIMA","fecha_inicio":"2021-11-08","avance_pct":0.0,"monto":24459532670.0,"lat":null,"lon":null,"gestion":"Nueva gestión"},{"nombre":"RAMALES DE LAS CUENCAS MALDONADO, VEGA Y COLDAÑEZ LOTE 2","jurisdiccion":"Jefatura de Gabinete de Ministros","estado":"En ejecución","empresa":"COARCO SOCIEDAD ANONIMA","fecha_inicio":"2021-11-08","avance_pct":0.0,"monto":28541446960.0,"lat":null,"lon":null,"gestion":"Nueva gestión"},{"nombre":"Reforma y adecuación para ascensor, ampliación y acceso sanitarios - LICEO N° 12","jurisdiccion":"Ministerio de Educación","estado":"En ejecución","empresa":"LOGISTICAL SA","fecha_inicio":"2021-09-15","avance_pct":100.0,"monto":178210000.0,"lat":-34.622,"lon":-58.43514,"gestion":"Nueva gestión"},{"nombre":"Freno de deterioro y basamento perimetral, reparaciones, inst. elec. - Arcamendi","jurisdiccion":"Ministerio de Educación","estado":"En ejecución","empresa":"AGE CONSTRUCCIONES SRL","fecha_inicio":"2021-11-23","avance_pct":100.0,"monto":913770090.0,"lat":-34.64112,"lon":-58.38,"gestion":"Nueva gestión"},{"nombre":"MEJORA EDILICIA Y DE LAS INSTALACIONES IE-IS-IT - LAVALLE 1681 - RODRIGUEZ PEÑA","jurisdiccion":"Ministerio de Educación","estado":"En ejecución","empresa":"ESTILO QUARZO SRL","fecha_inicio":"2022-06-03","avance_pct":99.9,"monto":815685440.0,"lat":-34.60252,"lon":-58.39085,"gestion":"Nueva gestión"},{"nombre":"Reparaciones, imper. e inst. ESC. EDUCACIÓN MEDIA N° 5/3º - sita en Av. Entre Rí","jurisdiccion":"Ministerio de Educación","estado":"En ejecución","empresa":"MECALL SRL","fecha_inicio":"2021-12-22","avance_pct":99.3,"monto":893002520.0,"lat":-34.61722,"lon":-58.39188,"gestion":"Nueva gestión"},{"nombre":"Inst. Eléctrica - Esc. N° 33 D.E. 18° Álvarez Jonte 5075","jurisdiccion":"Ministerio de Educación","estado":"En ejecución","empresa":"BONALDI CONSTRUCCIONES SRL","fecha_inicio":"2022-08-19","avance_pct":100.0,"monto":405217180.0,"lat":null,"lon":null,"gestion":"Nueva gestión"},{"nombre":"Parque Lineal Honorio Pueyrredon","jurisdiccion":"Ministerio de Espacio Publico e Higiene Urbana","estado":"En ejecución","empresa":"MIAVASA S.A.","fecha_inicio":"2022-01-01","avance_pct":78.7,"monto":3979729180.0,"lat":-34.60776,"lon":-58.445,"gestion":"Nueva gestión"},{"nombre":"Trabajos varios - 24 de Noviembre 1536 - UG 3","jurisdiccion":"Ministerio de Educación","estado":"En ejecución","empresa":"ESTILO QUARZO SRL","fecha_inicio":"2022-07-07","avance_pct":100.0,"monto":683445650.0,"lat":null,"lon":null,"gestion":"Nueva gestión"},{"nombre":"Trabajos varios - Paraguay 1950 - UG 2","jurisdiccion":"Ministerio de Educación","estado":"En ejecución","empresa":"ESTILO QUARZO SRL","fecha_inicio":"2022-07-08","avance_pct":100.0,"monto":775062540.0,"lat":null,"lon":null,"gestion":"Nueva gestión"},{"nombre":"EJECUCIÓN, REHABILITACIÓN Y MANTENIMIENTO DE VIVIENDAS DEL BARRIO 31. CRISTO OBR","jurisdiccion":"Ministerio de Desarrollo Humano y Hábitat","estado":"En ejecución","empresa":"BLUE STEEL S. A.","fecha_inicio":"2021-12-09","avance_pct":100.0,"monto":996687610.0,"lat":-34.58176,"lon":-58.37965,"gestion":"Nueva gestión"},{"nombre":"SUMINISTRO ELÉCTRICO EN MEDIA TENSIÓN Y DISTRIBUCION INTERNA EN BAJA TENSION en","jurisdiccion":"Ministerio de Salud","estado":"En ejecución","empresa":"MEJORES HOSPITALES SA","fecha_inicio":"2022-05-02","avance_pct":100.0,"monto":4307970000.0,"lat":-34.59439,"lon":-58.4115,"gestion":"Nueva gestión"},{"nombre":"Cerramiento y Pórtico de Acceso del Ecoparque Interactivo","jurisdiccion":"Jefatura de Gobierno","estado":"Proceso Licitatorio","empresa":"NAKU CONSTRUCCIONES S.R.L.","fecha_inicio":"nan","avance_pct":0.0,"monto":358400300.0,"lat":-34.57828,"lon":-58.41494,"gestion":"Nueva gestión"},{"nombre":"Reformas vs - Esc. Sec. N° 19 \"LUIS PASTEUR\" - D.E. 17º - Navarro 4344","jurisdiccion":"Ministerio de Educación","estado":"En ejecución","empresa":"VILLAREX S.A.","fecha_inicio":"2022-05-27","avance_pct":100.0,"monto":564293890.0,"lat":-34.60524,"lon":-58.51295,"gestion":"Nueva gestión"},{"nombre":"Construcción de Viviendas Multifamiliares YPF TREN","jurisdiccion":"Ministerio de Desarrollo Humano y Hábitat","estado":"En ejecución","empresa":"BRICONS S.A.I.C.F.I.","fecha_inicio":"2022-04-18","avance_pct":100.0,"monto":12760000000.0,"lat":null,"lon":null,"gestion":"Nueva gestión"},{"nombre":"Traslado del Servicio de urgencias al Pabellon II en el HGA P. Piñero","jurisdiccion":"Ministerio de Salud","estado":"En ejecución","empresa":"LESKO S.A.C.I.F.I.A.","fecha_inicio":"2022-11-14","avance_pct":100.0,"monto":8213367290.0,"lat":-34.64475,"lon":-58.45434,"gestion":"Nueva gestión"},{"nombre":"Instal. eléctrica - Esc. Prim. Común N°6 - \"V. F. López\" - UG 14 - Av. Santa Fé","jurisdiccion":"Ministerio de Educación","estado":"En ejecución","empresa":"INMAC INGENIERIA Y ARQUITECTURA S. A.","fecha_inicio":"2022-10-07","avance_pct":100.0,"monto":652950700.0,"lat":-34.57648,"lon":-58.43293,"gestion":"Nueva gestión"},{"nombre":"CONTRUCCION COMISARIA COMUNAL 7","jurisdiccion":"Ministerio de Justicia y Seguridad","estado":"En ejecución","empresa":"DEJESUS CONSTRUCTORA SRL","fecha_inicio":"2022-08-08","avance_pct":100.0,"monto":6489934320.0,"lat":-34.63841,"lon":-58.45642,"gestion":"Nueva gestión"},{"nombre":"Ascensor e Inst. Sanitaria - Esc. Normal Superior Lenguas Vivas N° 4 D.E. 1° - J","jurisdiccion":"Ministerio de Educación","estado":"En ejecución","empresa":"DILTHEY S.A.","fecha_inicio":"2022-06-26","avance_pct":100.0,"monto":177328060.0,"lat":-34.58517,"lon":-58.41011,"gestion":"Nueva gestión"},{"nombre":"Reparaciones varias, mejoras e instalación eléctrica - Jardin Integral N° 4/2 Ca","jurisdiccion":"Ministerio de Educación","estado":"En ejecución","empresa":"FILIP S.A.","fecha_inicio":"2022-07-08","avance_pct":97.7,"monto":387900000.0,"lat":-34.5969,"lon":-58.41698,"gestion":"Nueva gestión"},{"nombre":"Trabajos de rehab., ampliac. e inst. eléc. - Esc. N° 23 DE 12 - Venancio Flores","jurisdiccion":"Ministerio de Educación","estado":"En ejecución","empresa":"Seo Construcciones S.R.L.","fecha_inicio":"2022-11-01","avance_pct":88.0,"monto":785588080.0,"lat":-34.63239,"lon":-58.48403,"gestion":"Nueva gestión"},{"nombre":"Trabajos varios - Esc. Sup. de Educ. Art. en Danzas - DE 1 - Esmeralda 285/ Sarm","jurisdiccion":"Ministerio de Educación","estado":"En ejecución","empresa":"LOGISTICAL SA","fecha_inicio":"2023-03-06","avance_pct":95.2,"monto":931576600.0,"lat":null,"lon":null,"gestion":"Nueva gestión"},{"nombre":"Mantenimiento Alumbrado Publico- Zona 2","jurisdiccion":"Ministerio de Espacio Publico e Higiene Urbana","estado":"En ejecución","empresa":"LESKO S.A.C.I.F.I.A.","fecha_inicio":"2022-04-01","avance_pct":60.9,"monto":588318920.0,"lat":null,"lon":null,"gestion":"Nueva gestión"},{"nombre":"Instalación eléctrica - Esc. Prim. N°03 - J.I.N. C - DE 14- UG 15 - Girardot 194","jurisdiccion":"Ministerio de Educación","estado":"En ejecución","empresa":"Dagresa Vial Construcciones SRL","fecha_inicio":"2022-11-17","avance_pct":100.0,"monto":284967330.0,"lat":-34.58527,"lon":-58.47353,"gestion":"Nueva gestión"},{"nombre":"PARQUE COSTERO BA","jurisdiccion":"Jefatura de Gabinete de Ministros","estado":"En ejecución","empresa":"CRIBA SA","fecha_inicio":"2022-11-28","avance_pct":100.0,"monto":15233342270.0,"lat":null,"lon":null,"gestion":"Nueva gestión"},{"nombre":"Trab. de mej. edil. - Esc. Prim. \"Pres. Quintana\" - JIN B N° 10 - DE 1 UG 3 - La","jurisdiccion":"Ministerio de Educación","estado":"En ejecución","empresa":"Monge Construcciones S.R.L","fecha_inicio":"2023-01-19","avance_pct":99.0,"monto":1058568270.0,"lat":-34.60346,"lon":-58.40254,"gestion":"Nueva gestión"},{"nombre":"Mirador Obelisco - Av. 9 de Julio y Corrientes","jurisdiccion":"Ministerio de Espacio Publico e Higiene Urbana","estado":"En ejecución","empresa":"ASCENSORES SERVAS S.A.","fecha_inicio":"2023-02-01","avance_pct":63.4,"monto":1888904000.0,"lat":-34.60362,"lon":-58.38214,"gestion":"Nueva gestión"},{"nombre":"EJECUCIÓN, REHABILITACIÓN,MANTENIMIENTO E INTERVENCIÓN PUNTUAL EN VIVIENDAS-ETAP","jurisdiccion":"Ministerio de Desarrollo Humano y Hábitat","estado":"En ejecución","empresa":"DEMOLICIONES MITRE SRL","fecha_inicio":"2022-12-16","avance_pct":100.0,"monto":4234818980.0,"lat":-34.58176,"lon":-58.37965,"gestion":"Nueva gestión"},{"nombre":"AMPLIACION AREA RETENCION TEMPORAL EXCEDENTES HIDRICOS (ARTEH) EN PARQUE SARMIEN","jurisdiccion":"Jefatura de Gabinete de Ministros","estado":"En ejecución","empresa":"NAKU CONSTRUCCIONES S.R.L.-ALTOTE S.A.-RESERVORIO-UT","fecha_inicio":"2024-10-01","avance_pct":100.0,"monto":7126977460.0,"lat":-58.49839,"lon":-34.55299,"gestion":"Nueva gestión"},{"nombre":"EDIFICIO PARQUE DE LA INNOVACION - COWORKING","jurisdiccion":"Ministerio de Desarrollo Económico y Producción","estado":"En ejecución","empresa":"CRIBA SA","fecha_inicio":"2023-02-06","avance_pct":100.0,"monto":12099116700.0,"lat":-34.54707,"lon":-58.45445,"gestion":"Nueva gestión"},{"nombre":"Reha. de espacios - Polo Ed. Saavedra - DE 15 - UG 12 - C. Larralde 5085 y Galvá","jurisdiccion":"Ministerio de Educación","estado":"En ejecución","empresa":"CUNUMI S.A.","fecha_inicio":"2023-01-11","avance_pct":54.5,"monto":4297169000.0,"lat":-34.56179,"lon":-58.49537,"gestion":"Nueva gestión"},{"nombre":"Obra nueva - Esc. Prim. Com. Nº 11 y Jardín de Infant. DE 1 - Barrio 31","jurisdiccion":"Ministerio de Educación","estado":"En ejecución","empresa":"DEJESUS CONSTRUCTORA SRL","fecha_inicio":"2023-02-10","avance_pct":17.5,"monto":13713464780.0,"lat":-34.59777,"lon":-58.38516,"gestion":"Nueva gestión"},{"nombre":"Trabajos de mantenim. - Planetario \"Galileo Galilei\" Av. Sarmiento s/n y B. Rold","jurisdiccion":"Ministerio de Educación","estado":"En ejecución","empresa":"INGENIERIA AHMAD SRL","fecha_inicio":"2023-03-20","avance_pct":55.5,"monto":1432506730.0,"lat":-34.57038,"lon":-58.41221,"gestion":"Nueva gestión"},{"nombre":"Internación de Salud Mental Htal. GA E. Tornú Pabellón III Neumotisiología","jurisdiccion":"Ministerio de Salud","estado":"En ejecución","empresa":"SES SOCIEDAD ANONIMA","fecha_inicio":"2023-06-05","avance_pct":100.0,"monto":932134770.0,"lat":null,"lon":null,"gestion":"Nueva gestión"},{"nombre":"Nuevo Edificio Consultorios Externos Htal. G A P. Piñero","jurisdiccion":"Ministerio de Salud","estado":"En ejecución","empresa":"DYSCON S.A","fecha_inicio":"2023-07-03","avance_pct":100.0,"monto":15741694140.0,"lat":null,"lon":null,"gestion":"Nueva gestión"},{"nombre":"PTA.BAJO NORMA DE INSTAL.ELECTRICA, SANITARIA,GAS Y TERMOMEC.CAD INCHAUSTI Y CRC","jurisdiccion":"Jefatura de Gabinete de Ministros","estado":"En ejecución","empresa":"Instalectro s.a.","fecha_inicio":"2023-03-01","avance_pct":100.0,"monto":1542643230.0,"lat":-34.61514,"lon":-58.40373,"gestion":"Nueva gestión"},{"nombre":"Calle Verde - Ramón Falcón","jurisdiccion":"Ministerio de Espacio Publico e Higiene Urbana","estado":"En ejecución","empresa":"LX ARGENTINA S.A.-XAPOR S.A.-UT","fecha_inicio":"2023-06-01","avance_pct":90.7,"monto":1791995460.0,"lat":-34.63965,"lon":-58.50835,"gestion":"Nueva gestión"},{"nombre":"Centro de interpretación","jurisdiccion":"Jefatura de Gobierno","estado":"En ejecución","empresa":"MIICA SA","fecha_inicio":"2023-04-20","avance_pct":99.2,"monto":1484984500.0,"lat":-34.54559,"lon":-58.43853,"gestion":"Nueva gestión"},{"nombre":"Obra Plaza del Historiador","jurisdiccion":"Ministerio de Espacio Publico e Higiene Urbana","estado":"En ejecución","empresa":"OSP SA","fecha_inicio":"2023-03-01","avance_pct":99.5,"monto":427399200.0,"lat":-34.61327,"lon":-58.37322,"gestion":"Nueva gestión"},{"nombre":"PISTA DE CICLISMO Y PUESTA EN VALOR DEL PERIMETRO DEL PARQUE SARMIENTO","jurisdiccion":"Jefatura de Gabinete de Ministros","estado":"En ejecución","empresa":"PREDIAL CONSTRUCTORA S.A.","fecha_inicio":"2023-04-19","avance_pct":100.0,"monto":4450454050.0,"lat":-34.57783,"lon":-58.44044,"gestion":"Nueva gestión"},{"nombre":"CONSTRUCCION POLO COMERCIAL","jurisdiccion":"Ministerio de Desarrollo Humano y Hábitat","estado":"En ejecución","empresa":"ALGIERI S.A.","fecha_inicio":"2023-03-27","avance_pct":93.2,"monto":1108485540.0,"lat":-34.58176,"lon":-58.37965,"gestion":"Nueva gestión"},{"nombre":"Trabajos de Mantenimiento - Comuna 1","jurisdiccion":"Ministerio de Educación","estado":"En ejecución","empresa":"SES SOCIEDAD ANONIMA","fecha_inicio":"2023-06-01","avance_pct":69.8,"monto":44972216780.0,"lat":-34.59222,"lon":-58.38717,"gestion":"Nueva gestión"},{"nombre":"Tareas de Mantenimiento - Comuna 3","jurisdiccion":"Ministerio de Educación","estado":"En ejecución","empresa":"MIG S.A.","fecha_inicio":"2023-10-06","avance_pct":77.6,"monto":36231247020.0,"lat":-34.60346,"lon":-58.40254,"gestion":"Nueva gestión"},{"nombre":"Tareas de Mantenimiento - Comuna 4A","jurisdiccion":"Ministerio de Educación","estado":"En ejecución","empresa":"INDALTEC S.A.","fecha_inicio":"2023-06-01","avance_pct":76.4,"monto":26210625410.0,"lat":-34.63312,"lon":-58.36349,"gestion":"Nueva gestión"},{"nombre":"Tareas de Mantenimiento - Comuna 4B","jurisdiccion":"Ministerio de Educación","estado":"En ejecución","empresa":"MIG S.A.","fecha_inicio":"2023-06-01","avance_pct":78.9,"monto":30405760540.0,"lat":-34.64432,"lon":-58.41759,"gestion":"Nueva gestión"},{"nombre":"Tareas de Mantenimiento - Comuna 6","jurisdiccion":"Ministerio de Educación","estado":"En ejecución","empresa":"INDALTEC S.A.","fecha_inicio":"2023-06-01","avance_pct":72.8,"monto":25659285980.0,"lat":-34.60466,"lon":-58.43404,"gestion":"Nueva gestión"},{"nombre":"Tareas de Mantenimiento - Comuna 7","jurisdiccion":"Ministerio de Educación","estado":"En ejecución","empresa":"SEYMA ESCUELAS II RIVA S.A.I.I.C.F.A - MANTELECTRIC I.C.I.S.A. UNION TRANSITORIA","fecha_inicio":"2023-06-23","avance_pct":80.8,"monto":29988679190.0,"lat":-34.61558,"lon":-58.46241,"gestion":"Nueva gestión"},{"nombre":"Tareas de Mantenimiento - Comuna 8A","jurisdiccion":"Ministerio de Educación","estado":"En ejecución","empresa":"MEJORES HOSPITALES SA","fecha_inicio":"2023-06-01","avance_pct":81.1,"monto":22095382180.0,"lat":-34.66495,"lon":-58.49171,"gestion":"Nueva gestión"},{"nombre":"Tareas de Mantenimiento - Comuna 10A","jurisdiccion":"Ministerio de Educación","estado":"En ejecución","empresa":"MEJORES HOSPITALES SA","fecha_inicio":"2023-06-01","avance_pct":80.0,"monto":12679512940.0,"lat":-34.63109,"lon":-58.48254,"gestion":"Nueva gestión"},{"nombre":"Tareas de Mantenimiento - Comuna 10B","jurisdiccion":"Ministerio de Educación","estado":"En ejecución","empresa":"SEHOS S.A.","fecha_inicio":"2023-06-01","avance_pct":74.9,"monto":22111372010.0,"lat":-34.62103,"lon":-58.52744,"gestion":"Nueva gestión"},{"nombre":"Tareas de Mantenimiento - Comuna 11","jurisdiccion":"Ministerio de Educación","estado":"En ejecución","empresa":"M. H. CONSTRUCCIONES Y SERVICIOS S.A.","fecha_inicio":"2023-06-01","avance_pct":79.1,"monto":25704653870.0,"lat":-34.60704,"lon":-58.46791,"gestion":"Nueva gestión"},{"nombre":"Tareas de Mantenimiento - Comuna 12","jurisdiccion":"Ministerio de Educación","estado":"En ejecución","empresa":"SEYMA ESCUELAS II RIVA S.A.I.I.C.F.A - MANTELECTRIC I.C.I.S.A. UNION TRANSITORIA","fecha_inicio":"2023-06-23","avance_pct":80.3,"monto":30226387060.0,"lat":-34.55547,"lon":-58.48022,"gestion":"Nueva gestión"},{"nombre":"Tareas de Mantenimiento - Comuna 13","jurisdiccion":"Ministerio de Educación","estado":"En ejecución","empresa":"M. H. CONSTRUCCIONES Y SERVICIOS S.A.","fecha_inicio":"2023-06-01","avance_pct":78.2,"monto":31951806050.0,"lat":-34.57262,"lon":-58.44439,"gestion":"Nueva gestión"},{"nombre":"Tareas de Mantenimiento - Comuna 14","jurisdiccion":"Ministerio de Educación","estado":"En ejecución","empresa":"SEHOS S.A.","fecha_inicio":"2023-06-01","avance_pct":79.3,"monto":26883508610.0,"lat":-34.58434,"lon":-58.41322,"gestion":"Nueva gestión"},{"nombre":"Tareas de Mantenimiento - Comuna 15","jurisdiccion":"Ministerio de Educación","estado":"En ejecución","empresa":"SEYMA ESCUELAS II RIVA S.A.I.I.C.F.A - MANTELECTRIC I.C.I.S.A. UNION TRANSITORIA","fecha_inicio":"2023-06-23","avance_pct":79.8,"monto":25769216310.0,"lat":-34.60176,"lon":-58.46788,"gestion":"Nueva gestión"},{"nombre":"Tareas de Mantenimiento -Comuna 2","jurisdiccion":"Ministerio de Educación","estado":"En ejecución","empresa":"SES SOCIEDAD ANONIMA","fecha_inicio":"2023-06-01","avance_pct":73.1,"monto":11363890200.0,"lat":-34.59024,"lon":-58.3946,"gestion":"Nueva gestión"},{"nombre":"Tareas de Mantenimiento - Comuna 5","jurisdiccion":"Ministerio de Educación","estado":"En ejecución","empresa":"MIG S.A.","fecha_inicio":"2023-06-01","avance_pct":81.2,"monto":23614934960.0,"lat":-34.59467,"lon":-58.41182,"gestion":"Nueva gestión"},{"nombre":"Tareas de Mantenimiento - Comuna 8B","jurisdiccion":"Ministerio de Educación","estado":"En ejecución","empresa":"MEJORES HOSPITALES SA","fecha_inicio":"2023-06-01","avance_pct":78.4,"monto":25328909910.0,"lat":-34.67967,"lon":-58.49572,"gestion":"Nueva gestión"},{"nombre":"Tareas de Manteniimiento - Comuna 9","jurisdiccion":"Ministerio de Educación","estado":"En ejecución","empresa":"INDALTEC S.A.","fecha_inicio":"2023-06-01","avance_pct":69.0,"monto":14083480850.0,"lat":-34.64245,"lon":-58.47398,"gestion":"Nueva gestión"},{"nombre":"Construcción de comedor - Rivadavia 4950 - UG 6","jurisdiccion":"Ministerio de Educación","estado":"En ejecución","empresa":"INMAC INGENIERIA Y ARQUITECTURA S. A.","fecha_inicio":"2023-06-02","avance_pct":99.7,"monto":1114497630.0,"lat":-34.6183,"lon":-58.43728,"gestion":"Nueva gestión"},{"nombre":"Obra Nueva - Escuela Primaria de Creación - Est. Buenos Aires - Monasterio y Suá","jurisdiccion":"Ministerio de Educación","estado":"En ejecución","empresa":"LOGISTICAL S.A. - BAUGE CONSTRUCCIONES S.A. - UNIÓN TRANSITORIA","fecha_inicio":"2023-09-20","avance_pct":99.1,"monto":15997047540.0,"lat":null,"lon":null,"gestion":"Nueva gestión"},{"nombre":"Mejora edilicia - Esc. N°03 ¿Dr. O. Leguizamón¿ D.E 1 / UG 2 - Av. Santa Fé 1510","jurisdiccion":"Ministerio de Educación","estado":"En ejecución","empresa":"HERA SRL","fecha_inicio":"2023-07-06","avance_pct":99.9,"monto":894357670.0,"lat":-34.59622,"lon":-58.39088,"gestion":"Nueva gestión"},{"nombre":"ETAPA IV: obras complementarias en el Hospital General de Agudos Dra. Cecilia Gr","jurisdiccion":"Ministerio de Salud","estado":"En ejecución","empresa":"TALA CONSTRUCCIONES S.A","fecha_inicio":"2023-06-15","avance_pct":100.0,"monto":4822484660.0,"lat":null,"lon":null,"gestion":"Nueva gestión"},{"nombre":"CENTRO REGIONAL DE HEMOTERAPIA DE LA CABA","jurisdiccion":"Ministerio de Salud","estado":"En ejecución","empresa":"CUNUMI S.A.","fecha_inicio":"2023-07-17","avance_pct":19.1,"monto":17451613000.0,"lat":-34.58654,"lon":-58.47397,"gestion":"Nueva gestión"},{"nombre":"Rest. y puesta en valor - Esc. Téc. N° 8 - DE 13 - UG 9 - Pío Collivadino 436","jurisdiccion":"Ministerio de Educación","estado":"En ejecución","empresa":"Seo Construcciones S.R.L.","fecha_inicio":"2023-08-16","avance_pct":19.9,"monto":2445907060.0,"lat":-34.64003,"lon":-58.48586,"gestion":"Nueva gestión"},{"nombre":"INTERVENCION PARCIAL DE LOS PERISTILOS DE ACCESO Y DEL CREMATORIO CEMENTERIO CHA","jurisdiccion":"Jefatura de Gobierno","estado":"En ejecución","empresa":"SES SOCIEDAD ANONIMA","fecha_inicio":"2023-07-03","avance_pct":100.0,"monto":2940489120.0,"lat":-34.59107,"lon":-58.45909,"gestion":"Nueva gestión"},{"nombre":"Rest. de fachad. -Esc. N°1, 2, 3, 4¿JIC 5¿N°2 Adultos¿Coro y Orq.-Catamarca 2085","jurisdiccion":"Ministerio de Educación","estado":"En ejecución","empresa":"HIT CONSTRUCCIONES S.A.","fecha_inicio":"2023-09-28","avance_pct":100.0,"monto":5956148260.0,"lat":-34.63374,"lon":-58.40368,"gestion":"Nueva gestión"},{"nombre":"Inst. eléct. - Esc. Prim. Com. N°5 \"H. C. de la Nac.\" JII 5 DE.9 UG 14 - Liberta","jurisdiccion":"Ministerio de Educación","estado":"En ejecución","empresa":"SERVEC S.A.","fecha_inicio":"2023-07-06","avance_pct":100.0,"monto":176241450.0,"lat":-34.56437,"lon":-58.43624,"gestion":"Nueva gestión"},{"nombre":"Interv. vs. - Esc. Prim. Común N° 22 \"Felix de Azara\"- DE 15 UG 12 - J. P. Tambo","jurisdiccion":"Ministerio de Educación","estado":"En ejecución","empresa":"LEMME OBRAS CIVILES SRL","fecha_inicio":"2023-07-18","avance_pct":100.0,"monto":620730000.0,"lat":-34.56094,"lon":-58.48218,"gestion":"Nueva gestión"},{"nombre":"OBRA RESTAURACIÓN CONSERVATIVA DEL MAUSOLEO DEL GENERAL BELGRANO","jurisdiccion":"Ministerio de Espacio Publico e Higiene Urbana","estado":"En ejecución","empresa":"OSP SA","fecha_inicio":"2023-06-01","avance_pct":94.1,"monto":911380580.0,"lat":-34.61255,"lon":-58.37182,"gestion":"Nueva gestión"},{"nombre":"Mejoras edil. - Esc. Secund. Nº7 ¿J. M. de Pueyrredón¿ - D.E. N° 3 UG 1 - Chacab","jurisdiccion":"Ministerio de Educación","estado":"En ejecución","empresa":"OBRAS Y SERVICIOS INDUSTRIALES S.R.L.","fecha_inicio":"2023-08-03","avance_pct":100.0,"monto":296226720.0,"lat":-34.61875,"lon":-58.37768,"gestion":"Nueva gestión"},{"nombre":"EJECUCION DE INFRAESTRUCTURA EN TRAMOS DEL MACIZO SECTOR GUEMES -TRAMO: EVITA-LU","jurisdiccion":"Ministerio de Desarrollo Humano y Hábitat","estado":"En ejecución","empresa":"BENCEN CONSTRUCCIONES SRL","fecha_inicio":"2023-07-17","avance_pct":100.0,"monto":3134747090.0,"lat":-34.58176,"lon":-58.37965,"gestion":"Nueva gestión"},{"nombre":"REFORMA INTEGRAL CENTRO DE ACCIÓN FAMILIAR (CAF) CEMAI, CIUDAD AUTONOMA DE BUENO","jurisdiccion":"Ministerio de Desarrollo Humano y Hábitat","estado":"En ejecución","empresa":"SERVEC S.A.","fecha_inicio":"2023-08-03","avance_pct":100.0,"monto":934211800.0,"lat":-34.6534,"lon":-58.39493,"gestion":"Nueva gestión"},{"nombre":"REFORMA INTEGRAL CENTRO DE DESARROLLO INFANTIL (CEDI) COPELLO","jurisdiccion":"Ministerio de Desarrollo Humano y Hábitat","estado":"En ejecución","empresa":"KIR S.A.","fecha_inicio":"2023-07-19","avance_pct":97.9,"monto":2184198410.0,"lat":-34.66627,"lon":-58.47479,"gestion":"Nueva gestión"},{"nombre":"REFORMA INTEGRAL CENTRO DE DESARROLLO INFANTIL (CEDI) TUTZO DE BONIFACIO","jurisdiccion":"Ministerio de Desarrollo Humano y Hábitat","estado":"En ejecución","empresa":"VILLAREX S.A.","fecha_inicio":"2023-07-19","avance_pct":100.0,"monto":922526600.0,"lat":-34.63311,"lon":-58.50609,"gestion":"Nueva gestión"},{"nombre":"REFORMA INTEGRAL CENTRO DE DESARROLLO INFANTIL (CEDI) PRINGLES, CIUDAD AUTONOMA","jurisdiccion":"Ministerio de Desarrollo Humano y Hábitat","estado":"En ejecución","empresa":"VILLAREX S.A.","fecha_inicio":"2023-07-19","avance_pct":100.0,"monto":817529160.0,"lat":-34.60797,"lon":-58.42782,"gestion":"Nueva gestión"},{"nombre":"ADECUACION CASA CASERA Y CREACION DE AULAS - Esc. N° 2 \"Mariano Acosta\" D.E.6° U","jurisdiccion":"Ministerio de Educación","estado":"En ejecución","empresa":"Obo Studio S.R.L","fecha_inicio":"2023-09-14","avance_pct":64.1,"monto":204048480.0,"lat":-34.61368,"lon":-58.41233,"gestion":"Nueva gestión"},{"nombre":"Reparación de cubiertas, fisuras y revoques de diferentes pabellones HMRYGV","jurisdiccion":"Ministerio de Salud","estado":"En ejecución","empresa":"KION SOCIEDAD ANONIMA INDUSTRIAL Y COMERCIAL","fecha_inicio":"2023-07-24","avance_pct":100.0,"monto":1963978750.0,"lat":null,"lon":null,"gestion":"Nueva gestión"},{"nombre":"REACONDICIONAMIENTO EDILICIO DEL TÚNEL LIBERTADOR","jurisdiccion":"Jefatura de Gobierno","estado":"En ejecución","empresa":"MIICA SA","fecha_inicio":"2023-07-20","avance_pct":100.0,"monto":3141511690.0,"lat":null,"lon":null,"gestion":"Nueva gestión"},{"nombre":"EJECUCIÓN DE INFRAESTRUCTURA EN SECTOR INMIGRANTES ¿ TRAMO: PURMAMARCA","jurisdiccion":"Ministerio de Desarrollo Humano y Hábitat","estado":"En ejecución","empresa":"DESOBSTRUCTORA ARGENTINA S.A","fecha_inicio":"2023-07-17","avance_pct":100.0,"monto":1690483790.0,"lat":-34.58176,"lon":-58.37965,"gestion":"Nueva gestión"},{"nombre":"Parador BOQUITA - Av. Caseros 805 - CABA","jurisdiccion":"Jefatura de Gobierno","estado":"En ejecución","empresa":"INFRAESTRUCTURA BASICA APLICADA S.A.","fecha_inicio":"2023-09-07","avance_pct":100.0,"monto":334444330.0,"lat":-34.62729,"lon":-58.37583,"gestion":"Nueva gestión"},{"nombre":"Tareas vs. - Esc. Prim. N°15 ¿Rep. O. del Uruguay¿ DE 11 UG 7 - Av. Carabobo 253","jurisdiccion":"Ministerio de Educación","estado":"En ejecución","empresa":"SPINELLI Y ASOCIADOS SRL","fecha_inicio":"2023-09-02","avance_pct":100.0,"monto":515532310.0,"lat":-34.63014,"lon":-58.45864,"gestion":"Nueva gestión"},{"nombre":"REMODELACIÓN DE LOS SERVICIOS DE ENFERMERIA Y KINESIOLOGÍA PABELLÓN I DEL HOGAR","jurisdiccion":"Ministerio de Salud","estado":"En ejecución","empresa":"BLUE STEEL S. A.","fecha_inicio":"2023-10-17","avance_pct":100.0,"monto":1240830060.0,"lat":-34.63404,"lon":-58.3855,"gestion":"Nueva gestión"},{"nombre":"Mant. int. - Museo y JII N° 01/04° B. Q. Martín - P de Mendoza 1835/ A. de Lamad","jurisdiccion":"Ministerio de Educación","estado":"En ejecución","empresa":"INDALTEC S.A.","fecha_inicio":"2023-10-25","avance_pct":49.0,"monto":9428582690.0,"lat":-34.63866,"lon":-58.36583,"gestion":"Nueva gestión"},{"nombre":"Servicios Crónicos en Sala Juana Azurduy Hogar San Martín","jurisdiccion":"Ministerio de Salud","estado":"En ejecución","empresa":"BLUE STEEL S. A.","fecha_inicio":"2023-11-06","avance_pct":100.0,"monto":4011430330.0,"lat":-34.59745,"lon":-58.47855,"gestion":"Nueva gestión"},{"nombre":"PREVIAL VI- ZONA 1","jurisdiccion":"Ministerio de Espacio Publico e Higiene Urbana","estado":"En ejecución","empresa":"CONCRET-NOR S.A.","fecha_inicio":"2024-01-01","avance_pct":44.2,"monto":52943392210.0,"lat":-34.60449,"lon":-58.41959,"gestion":"Nueva gestión"},{"nombre":"PREVIAL VI- ZONA 2","jurisdiccion":"Ministerio de Espacio Publico e Higiene Urbana","estado":"En ejecución","empresa":"CONSTRUCCIONES INGEVIAL S.A.-VIAL-TEC S.A. U. T. E.","fecha_inicio":"2023-11-06","avance_pct":38.1,"monto":90592396740.0,"lat":-34.68109,"lon":-58.40293,"gestion":"Nueva gestión"},{"nombre":"PREVIAL VI- ZONA 3","jurisdiccion":"Ministerio de Espacio Publico e Higiene Urbana","estado":"En ejecución","empresa":"CONSTRUMEX S.A.","fecha_inicio":"2023-09-01","avance_pct":95.1,"monto":31009016710.0,"lat":-34.68109,"lon":-58.40293,"gestion":"Nueva gestión"},{"nombre":"PREVIAL VI- ZONA 4","jurisdiccion":"Ministerio de Espacio Publico e Higiene Urbana","estado":"En ejecución","empresa":"PREDIAL CONSTRUCTORA S.A.","fecha_inicio":"2023-09-01","avance_pct":43.1,"monto":46328235060.0,"lat":-34.68109,"lon":-58.40293,"gestion":"Nueva gestión"},{"nombre":"PREVIAL VI- ZONA 5","jurisdiccion":"Ministerio de Espacio Publico e Higiene Urbana","estado":"En ejecución","empresa":"CONSTRUCCIONES INGEVIAL S.A.-VIAL-TEC S.A. U. T. E.","fecha_inicio":"2024-01-01","avance_pct":74.0,"monto":45519725150.0,"lat":-34.61109,"lon":-58.40293,"gestion":"Nueva gestión"},{"nombre":"PREVIAL VI- ZONA 6","jurisdiccion":"Ministerio de Espacio Publico e Higiene Urbana","estado":"En ejecución","empresa":"POSE S.A","fecha_inicio":"2023-09-01","avance_pct":45.0,"monto":63442324830.0,"lat":-34.68109,"lon":-58.40293,"gestion":"Nueva gestión"},{"nombre":"PREVIAL VI- ZONA 7","jurisdiccion":"Ministerio de Espacio Publico e Higiene Urbana","estado":"En ejecución","empresa":"C&E Construcciones S.A.","fecha_inicio":"2023-09-01","avance_pct":93.0,"monto":59882225080.0,"lat":-34.68109,"lon":-58.40293,"gestion":"Nueva gestión"},{"nombre":"PREVIAL VI - ZONA 8","jurisdiccion":"Ministerio de Espacio Publico e Higiene Urbana","estado":"En ejecución","empresa":"MARCALBA S.A.","fecha_inicio":"2023-09-01","avance_pct":52.9,"monto":99920947030.0,"lat":-34.68109,"lon":-34.68109,"gestion":"Nueva gestión"},{"nombre":"PREVIAL VI- ZONA 9","jurisdiccion":"Ministerio de Espacio Publico e Higiene Urbana","estado":"En ejecución","empresa":"SEOB S.A.","fecha_inicio":"2023-09-01","avance_pct":99.3,"monto":41122002590.0,"lat":-34.68109,"lon":-34.68109,"gestion":"Nueva gestión"},{"nombre":"PREVIAL VI - ZONA 19","jurisdiccion":"Ministerio de Espacio Publico e Higiene Urbana","estado":"En ejecución","empresa":"OSP SA","fecha_inicio":"2023-09-01","avance_pct":71.3,"monto":53347923030.0,"lat":-34.68109,"lon":-58.40293,"gestion":"Nueva gestión"},{"nombre":"PREVIAL VI- ZONA 10","jurisdiccion":"Ministerio de Espacio Publico e Higiene Urbana","estado":"En ejecución","empresa":"AVINCO CONSTRUCCIONES SOCIEDAD ANONIMA","fecha_inicio":"2023-09-01","avance_pct":59.0,"monto":36325223370.0,"lat":-34.61109,"lon":-58.40293,"gestion":"Nueva gestión"},{"nombre":"PREVIAL VI - ZONA 20","jurisdiccion":"Ministerio de Espacio Publico e Higiene Urbana","estado":"En ejecución","empresa":"TECNOVIAS SRL -DA FRE OBRAS CIVILES SA U. T. E.","fecha_inicio":"2023-11-01","avance_pct":93.4,"monto":51331852960.0,"lat":-34.68109,"lon":-58.40293,"gestion":"Nueva gestión"},{"nombre":"PREVIAL VI- ZONA 11","jurisdiccion":"Ministerio de Espacio Publico e Higiene Urbana","estado":"En ejecución","empresa":"ALTOTE S.A.","fecha_inicio":"2023-09-01","avance_pct":49.9,"monto":31585602480.0,"lat":-34.68109,"lon":-58.40293,"gestion":"Nueva gestión"},{"nombre":"PREVIAL VI- ZONA 12","jurisdiccion":"Ministerio de Espacio Publico e Higiene Urbana","estado":"En ejecución","empresa":"BLUE GUARDIAN S.A.-DEJESUS CONSTRUCTORA S.R.L. UTE","fecha_inicio":"2023-11-01","avance_pct":32.2,"monto":32897149870.0,"lat":-34.68109,"lon":-58.40293,"gestion":"Nueva gestión"},{"nombre":"PREVIAL VI - ZONA 21","jurisdiccion":"Ministerio de Espacio Publico e Higiene Urbana","estado":"En ejecución","empresa":"LA MANTOVANA DE SERVICIOS GENERALES S.A.","fecha_inicio":"2023-10-01","avance_pct":18.5,"monto":43235083960.0,"lat":-34.68109,"lon":-58.40293,"gestion":"Nueva gestión"},{"nombre":"PREVIAL VI- ZONA 13","jurisdiccion":"Ministerio de Espacio Publico e Higiene Urbana","estado":"En ejecución","empresa":"SEPEYCO S.R.L - BETON VIAL S.A. - PREVIAL VI UT","fecha_inicio":"2023-10-04","avance_pct":50.8,"monto":54442330000.0,"lat":-34.68109,"lon":-58.40293,"gestion":"Nueva gestión"},{"nombre":"PREVIAL VI- ZONA 14","jurisdiccion":"Ministerio de Espacio Publico e Higiene Urbana","estado":"En ejecución","empresa":"E.V.A. S.A.","fecha_inicio":"2023-09-01","avance_pct":96.9,"monto":35106257810.0,"lat":-34.68109,"lon":-58.40293,"gestion":"Nueva gestión"},{"nombre":"PREVIAL VI - ZONA 22","jurisdiccion":"Ministerio de Espacio Publico e Higiene Urbana","estado":"En ejecución","empresa":"RICAVIAL S.A - PMP CONSTRUCCIONES S.R.L UT","fecha_inicio":"2023-11-06","avance_pct":100.0,"monto":18248256160.0,"lat":-34.68109,"lon":-58.40293,"gestion":"Nueva gestión"},{"nombre":"PREVIAL VI- ZONA 15","jurisdiccion":"Ministerio de Espacio Publico e Higiene Urbana","estado":"En ejecución","empresa":"MIAVASA S.A.","fecha_inicio":"2023-09-01","avance_pct":61.2,"monto":45595233820.0,"lat":-34.68109,"lon":-58.40293,"gestion":"Nueva gestión"},{"nombre":"PREVIAL VI - ZONA 18","jurisdiccion":"Ministerio de Espacio Publico e Higiene Urbana","estado":"En ejecución","empresa":"ALEMARSA SOCIEDAD ANONIMA COMERCIAL","fecha_inicio":"2023-09-01","avance_pct":24.3,"monto":61446044030.0,"lat":-34.68109,"lon":-58.40293,"gestion":"Nueva gestión"},{"nombre":"PREVIAL VI- ZONA 16","jurisdiccion":"Ministerio de Espacio Publico e Higiene Urbana","estado":"En ejecución","empresa":"ILUBAIRES S.A.","fecha_inicio":"2023-09-01","avance_pct":32.8,"monto":48597119390.0,"lat":-34.68109,"lon":-58.40293,"gestion":"Nueva gestión"},{"nombre":"PREVIAL VI- ZONA 17","jurisdiccion":"Ministerio de Espacio Publico e Higiene Urbana","estado":"En ejecución","empresa":"GRUPO VARSOVIA S.R.L.","fecha_inicio":"2023-11-01","avance_pct":38.7,"monto":52854115580.0,"lat":-34.68109,"lon":-58.40293,"gestion":"Nueva gestión"},{"nombre":"Inst. eléct. - Esc. Prim. Com. N°05 - JIN \"C\" - DE 14 - UG 15 - C. de Malvinas 3","jurisdiccion":"Ministerio de Educación","estado":"En ejecución","empresa":"E7 Construcciones SRL","fecha_inicio":"2023-09-19","avance_pct":100.0,"monto":687000000.0,"lat":-34.58303,"lon":-58.47615,"gestion":"Nueva gestión"},{"nombre":"ERYMA - ZONA A","jurisdiccion":"Ministerio de Espacio Publico e Higiene Urbana","estado":"En ejecución","empresa":"AVINCO CONSTRUCCIONES S.A. - ILUBAIRES S.A. - ERYMA III - UNION TRANSITORIA","fecha_inicio":"2023-10-01","avance_pct":69.7,"monto":64388061170.0,"lat":-34.68109,"lon":-58.40293,"gestion":"Nueva gestión"},{"nombre":"ERYMA - ZONA B","jurisdiccion":"Ministerio de Espacio Publico e Higiene Urbana","estado":"En ejecución","empresa":"ALTOTE S.A.","fecha_inicio":"2023-09-15","avance_pct":67.9,"monto":15400857590.0,"lat":-34.68109,"lon":-58.40293,"gestion":"Nueva gestión"},{"nombre":"ERYMA - ZONA C","jurisdiccion":"Ministerio de Espacio Publico e Higiene Urbana","estado":"En ejecución","empresa":"CONSTRUMEX S.A.","fecha_inicio":"2023-09-15","avance_pct":34.0,"monto":39723751020.0,"lat":-34.68109,"lon":-58.40293,"gestion":"Nueva gestión"},{"nombre":"ERYMA - ZONA D","jurisdiccion":"Ministerio de Espacio Publico e Higiene Urbana","estado":"En ejecución","empresa":"SEOB S.A.","fecha_inicio":"2023-09-15","avance_pct":92.7,"monto":32592481510.0,"lat":-34.68109,"lon":-58.40293,"gestion":"Nueva gestión"},{"nombre":"ERYMA - ZONA E","jurisdiccion":"Ministerio de Espacio Publico e Higiene Urbana","estado":"En ejecución","empresa":"SALVATORI S.A. PARQUES Y JARDINES","fecha_inicio":"2023-09-15","avance_pct":100.0,"monto":29270131780.0,"lat":-34.68109,"lon":-58.40293,"gestion":"Nueva gestión"},{"nombre":"ERYMA - ZONA F","jurisdiccion":"Ministerio de Espacio Publico e Higiene Urbana","estado":"En ejecución","empresa":"NAKU CONSTRUCCIONES S.R.L.","fecha_inicio":"2023-09-15","avance_pct":90.6,"monto":44651535780.0,"lat":-34.68109,"lon":-58.40293,"gestion":"Nueva gestión"},{"nombre":"ERYMA - ZONA G","jurisdiccion":"Ministerio de Espacio Publico e Higiene Urbana","estado":"En ejecución","empresa":"MIAVASA S.A.","fecha_inicio":"2023-09-15","avance_pct":99.8,"monto":48191676160.0,"lat":-34.68109,"lon":-58.40293,"gestion":"Nueva gestión"},{"nombre":"ERYMA - ZONA H","jurisdiccion":"Ministerio de Espacio Publico e Higiene Urbana","estado":"En ejecución","empresa":"MARCALBA S.A.","fecha_inicio":"2023-09-15","avance_pct":87.7,"monto":46817784260.0,"lat":-34.68109,"lon":-58.40293,"gestion":"Nueva gestión"},{"nombre":"ERYMA - ZONA I","jurisdiccion":"Ministerio de Espacio Publico e Higiene Urbana","estado":"En ejecución","empresa":"GRUPO VARSOVIA S.R.L.","fecha_inicio":"2023-09-15","avance_pct":71.9,"monto":51112368610.0,"lat":-34.68109,"lon":-58.40293,"gestion":"Nueva gestión"},{"nombre":"ERYMA - ZONA J","jurisdiccion":"Ministerio de Espacio Publico e Higiene Urbana","estado":"En ejecución","empresa":"ALEMARSA SOCIEDAD ANONIMA COMERCIAL","fecha_inicio":"2023-09-15","avance_pct":77.4,"monto":40042339890.0,"lat":-34.68109,"lon":-58.40293,"gestion":"Nueva gestión"},{"nombre":"ERYMA - ZONA L","jurisdiccion":"Ministerio de Espacio Publico e Higiene Urbana","estado":"En ejecución","empresa":"DEJESUS CONSTRUCTORA SRL","fecha_inicio":"2023-09-15","avance_pct":30.5,"monto":35231635190.0,"lat":-34.68109,"lon":-58.40293,"gestion":"Nueva gestión"},{"nombre":"ERYMA - ZONA M","jurisdiccion":"Ministerio de Espacio Publico e Higiene Urbana","estado":"En ejecución","empresa":"ALGIERI S.A.","fecha_inicio":"2023-09-15","avance_pct":66.5,"monto":41689558360.0,"lat":-34.68109,"lon":-58.40293,"gestion":"Nueva gestión"},{"nombre":"ERYMA - ZONA K","jurisdiccion":"Ministerio de Espacio Publico e Higiene Urbana","estado":"En ejecución","empresa":"URBASER ARGENTINA SA","fecha_inicio":"2023-09-15","avance_pct":40.6,"monto":29711376410.0,"lat":-34.68109,"lon":-58.40293,"gestion":"Nueva gestión"},{"nombre":"CAMINO DE SIRGA V","jurisdiccion":"Jefatura de Gabinete de Ministros","estado":"En ejecución","empresa":"ESTILO QUARZO SRL","fecha_inicio":"2024-07-08","avance_pct":85.4,"monto":15196276770.0,"lat":-34.65653,"lon":-58.37425,"gestion":"Nueva gestión"},{"nombre":"Completamiento demolición Bajo Autopista y construcción de EEPP","jurisdiccion":"Ministerio de Desarrollo Humano y Hábitat","estado":"En ejecución","empresa":"DEMOLICIONES MITRE SRL","fecha_inicio":"2024-04-25","avance_pct":100.0,"monto":1814966860.0,"lat":-34.58176,"lon":-58.37965,"gestion":"Nueva gestión"},{"nombre":"EJECUCIÓN, REHABILITACIÓN, MANTENIMIENTO E INTERVENCIONES-SECTOR FERROVIARIO","jurisdiccion":"Ministerio de Desarrollo Humano y Hábitat","estado":"En ejecución","empresa":"BLUE STEEL S. A.","fecha_inicio":"2023-10-11","avance_pct":100.0,"monto":9901667230.0,"lat":-34.58176,"lon":-58.37965,"gestion":"Nueva gestión"},{"nombre":"Inst. eléc- Esc. Sup. de Educ. Art. en Danza N°2 / en Arte Cerám. N° 2 - M. Cerv","jurisdiccion":"Ministerio de Educación","estado":"En ejecución","empresa":"SPINELLI Y ASOCIADOS SRL","fecha_inicio":"2023-12-08","avance_pct":100.0,"monto":80155400.0,"lat":-34.62965,"lon":-58.50633,"gestion":"Nueva gestión"},{"nombre":"Parque Ferroviario Colegiales ¿ Etapa III: Parque","jurisdiccion":"Ministerio de Espacio Publico e Higiene Urbana","estado":"En ejecución","empresa":"ALGIERI S.A.","fecha_inicio":"2023-12-01","avance_pct":94.8,"monto":8012043360.0,"lat":-34.68109,"lon":-58.40293,"gestion":"Nueva gestión"},{"nombre":"Parque Ferroviario Colegiales ¿ Etapa III: Calles Verdes","jurisdiccion":"Ministerio de Espacio Publico e Higiene Urbana","estado":"En ejecución","empresa":"BENCEN CONSTRUCCIONES SRL","fecha_inicio":"2024-01-01","avance_pct":98.5,"monto":2970223560.0,"lat":-34.68109,"lon":-58.40293,"gestion":"Nueva gestión"},{"nombre":"Tareas vs. - Esc. Prim. Com. N° 10/ J.I.C. N° 3 - DE 12 UG 10 - Mercedes 1405/ 1","jurisdiccion":"Ministerio de Educación","estado":"En ejecución","empresa":"Caffard SRL","fecha_inicio":"2024-01-11","avance_pct":69.4,"monto":710827070.0,"lat":-34.6992,"lon":-58.53142,"gestion":"Nueva gestión"},{"nombre":"Mejora edilicia - Esc. Prim. N°7 \"Gral. M. Zamudio\" - D.E. 16º UG 11 - J. Cubas","jurisdiccion":"Ministerio de Educación","estado":"En ejecución","empresa":"LEMME OBRAS CIVILES SRL","fecha_inicio":"2023-12-27","avance_pct":100.0,"monto":1445950000.0,"lat":-34.60065,"lon":-58.52181,"gestion":"Nueva gestión"},{"nombre":"Tareas vs - Natatorio Parque de la Ciudad D.E. N°21 UG 8 - F. F. de la Cruz S/N","jurisdiccion":"Ministerio de Educación","estado":"En ejecución","empresa":"Instalectro s.a.","fecha_inicio":"2023-12-19","avance_pct":100.0,"monto":990432530.0,"lat":-34.66987,"lon":-58.4568,"gestion":"Nueva gestión"},{"nombre":"Modificación de redes sanitarias Comisaría Comunal 7","jurisdiccion":"Ministerio de Justicia y Seguridad","estado":"En ejecución","empresa":"DEJESUS CONSTRUCTORA SRL","fecha_inicio":"2024-04-04","avance_pct":100.0,"monto":4195861490.0,"lat":-34.63841,"lon":-58.45642,"gestion":"Nueva gestión"},{"nombre":"Ejecución, rehabilitación, mantenimiento e intervención puntual de viviendas- Se","jurisdiccion":"Ministerio de Desarrollo Humano y Hábitat","estado":"En ejecución","empresa":"VILLAREX S.A.","fecha_inicio":"2024-03-04","avance_pct":100.0,"monto":7099706100.0,"lat":-34.58176,"lon":-58.37965,"gestion":"Nueva gestión"},{"nombre":"EJECUCIÓN REHABILITACIÓN, MANTENIMIENTO EN VIVIENDAS DEL BARRIO 31 -YPF","jurisdiccion":"Ministerio de Desarrollo Humano y Hábitat","estado":"En ejecución","empresa":"DEMOLICIONES MITRE SRL","fecha_inicio":"2024-03-11","avance_pct":100.0,"monto":7249483880.0,"lat":-34.58176,"lon":-58.37965,"gestion":"Nueva gestión"},{"nombre":"REACONDICIONADO DE CUBIERTA - TERMINAL DE COMBIS OBELISCO.","jurisdiccion":"Ministerio de Infraestructura","estado":"En ejecución","empresa":"ESTILO QUARZO SRL","fecha_inicio":"2024-08-01","avance_pct":100.0,"monto":1131105980.0,"lat":-34.60499,"lon":-58.38148,"gestion":"Nueva gestión"},{"nombre":"Obras vs. - Escuela Nº 16 - D.E. Nº08 UG 05 - Don Bosco 4200","jurisdiccion":"Ministerio de Educación","estado":"En ejecución","empresa":"SES SOCIEDAD ANONIMA","fecha_inicio":"2024-08-22","avance_pct":97.0,"monto":6366876840.0,"lat":-34.61392,"lon":-58.4272,"gestion":"Nueva gestión"},{"nombre":"MEJORA EDILICIA - EPC N°24 Y JIN D (EPCJC 24/13°) - D.E. 13° - AV. BRUIX 4620","jurisdiccion":"Ministerio de Educación","estado":"En ejecución","empresa":"Caffard SRL","fecha_inicio":"2024-08-23","avance_pct":99.5,"monto":3281205030.0,"lat":-34.64641,"lon":-58.49285,"gestion":"Nueva gestión"},{"nombre":"Remodelación de la Unidad de Terapia Intensiva A Htal GA J. A. Fernandez","jurisdiccion":"Ministerio de Salud","estado":"En ejecución","empresa":"KION SOCIEDAD ANONIMA INDUSTRIAL Y COMERCIAL","fecha_inicio":"2024-08-14","avance_pct":100.0,"monto":13856970460.0,"lat":null,"lon":null,"gestion":"Nueva gestión"},{"nombre":"Remodelación de la Unidad Coronaria y Relocalización Consultorios Ecocardiografí","jurisdiccion":"Ministerio de Salud","estado":"En ejecución","empresa":"TALA CONSTRUCCIONES S.A","fecha_inicio":"2024-08-12","avance_pct":100.0,"monto":13044440050.0,"lat":null,"lon":null,"gestion":"Nueva gestión"},{"nombre":"Ampliación de la Guardia en el HGA I Pirovano","jurisdiccion":"Ministerio de Salud","estado":"En ejecución","empresa":"TALA CONSTRUCCIONES S.A","fecha_inicio":"2024-09-09","avance_pct":100.0,"monto":22404440050.0,"lat":null,"lon":null,"gestion":"Nueva gestión"},{"nombre":"Obras vs. - Polo Educ. \" Padre Mugica\" Esc. Inf. 5/12/EPC 25/EEM6-DE 1 UG 1 - Le","jurisdiccion":"Ministerio de Educación","estado":"En ejecución","empresa":"ESTILO QUARZO SRL","fecha_inicio":"2024-09-11","avance_pct":98.7,"monto":9016872350.0,"lat":-34.5881,"lon":-58.37265,"gestion":"Nueva gestión"},{"nombre":"Mejora edilicia - Esc. Téc. N° 2 \"Raggio\" DE 10 UG 13 - Av. del Libertador 8635/","jurisdiccion":"Ministerio de Educación","estado":"En ejecución","empresa":"GRUPO VARSOVIA S.R.L.","fecha_inicio":"2024-08-16","avance_pct":94.8,"monto":20878988160.0,"lat":-34.53585,"lon":-58.4685,"gestion":"Nueva gestión"},{"nombre":"Traslado del Servicio de Diálisis en el Htal. G. A. Carlos Durand","jurisdiccion":"Ministerio de Salud","estado":"En ejecución","empresa":"KIR S.A.","fecha_inicio":"2024-09-02","avance_pct":100.0,"monto":14754696280.0,"lat":null,"lon":null,"gestion":"Nueva gestión"},{"nombre":"Nuevo CEMAR 3","jurisdiccion":"Ministerio de Salud","estado":"En ejecución","empresa":"MIAVASA S.A.","fecha_inicio":"2024-09-09","avance_pct":100.0,"monto":24441163000.0,"lat":null,"lon":null,"gestion":"Nueva gestión"},{"nombre":"Mejora edilicia - Esc. Primaria Común Nº 10 D.E. 10° - 11 de Septiembre de 1888","jurisdiccion":"Ministerio de Educación","estado":"En ejecución","empresa":"INMAC INGENIERIA Y ARQUITECTURA S. A.","fecha_inicio":"2024-10-02","avance_pct":94.6,"monto":11910565010.0,"lat":-34.54663,"lon":-58.46288,"gestion":"Nueva gestión"},{"nombre":"PREDIO PARA REGULACION, CARGA Y RECARGA DE MINIBUS.","jurisdiccion":"Ministerio de Infraestructura","estado":"En ejecución","empresa":"PIUTERRA S.A.-G2M S.R.L. U.T.E.","fecha_inicio":"2024-12-10","avance_pct":100.0,"monto":10361641320.0,"lat":-34.67298,"lon":-58.45574,"gestion":"Nueva gestión"},{"nombre":"Tareas vs - Esc. Prim. Común Nº 10 DE 4 UG 4 - Gral. G. Áraoz de Lamadrid 499","jurisdiccion":"Ministerio de Educación","estado":"En ejecución","empresa":"INMAC INGENIERIA Y ARQUITECTURA S. A.","fecha_inicio":"2024-10-01","avance_pct":98.7,"monto":12648175620.0,"lat":-34.63727,"lon":-58.36417,"gestion":"Nueva gestión"},{"nombre":"Mejora edilicia - Esc. Primaria Común N° 21/JIN E (EPCjc 21/10º) - Pinto 3910/ F","jurisdiccion":"Ministerio de Educación","estado":"En ejecución","empresa":"AVR Construcciones S.R.L.","fecha_inicio":"2024-11-05","avance_pct":100.0,"monto":8807186530.0,"lat":-34.54989,"lon":-58.48004,"gestion":"Nueva gestión"},{"nombre":"Refacciones varias - Esc. Primaria Común N° 15 y JIN Común N° 5, D.E. 10°. Pico","jurisdiccion":"Ministerio de Educación","estado":"En ejecución","empresa":"BLUE STEEL S. A.","fecha_inicio":"2024-11-05","avance_pct":84.3,"monto":22224421800.0,"lat":-34.54106,"lon":-58.4794,"gestion":"Nueva gestión"},{"nombre":"COLOCACION, READECUACION Y REACONDICIONAMIENTO DE CICLOVÍAS Y BICICLETEROS URBAN","jurisdiccion":"Ministerio de Infraestructura","estado":"En ejecución","empresa":"PMP CONSTRUCCIONES SRL","fecha_inicio":"2024-12-18","avance_pct":100.0,"monto":13147756480.0,"lat":-34.62914,"lon":-58.37022,"gestion":"Nueva gestión"},{"nombre":"OBRA PLAZA VILLA SANTA RITA","jurisdiccion":"Ministerio de Espacio Publico e Higiene Urbana","estado":"En ejecución","empresa":"NAKU CONSTRUCCIONES SRL - ALTOTE SA - PLAZA VILLA SANTA RITA - UT","fecha_inicio":"2024-12-01","avance_pct":100.0,"monto":10273609780.0,"lat":-34.70607,"lon":-58.45045,"gestion":"Nueva gestión"},{"nombre":"Restauración y ampliación de edificio y predio MOA","jurisdiccion":"Ministerio de Espacio Publico e Higiene Urbana","estado":"En ejecución","empresa":"Grupo Thor SRL -Garbin S.A U.T.E","fecha_inicio":"2024-12-01","avance_pct":96.3,"monto":17668396410.0,"lat":-34.57483,"lon":-58.41158,"gestion":"Nueva gestión"},{"nombre":"Centro Integral 3","jurisdiccion":"Ministerio de Salud","estado":"En ejecución","empresa":"RYELSA SRL","fecha_inicio":"2024-10-24","avance_pct":100.0,"monto":6390000030.0,"lat":-34.60583,"lon":-58.52408,"gestion":"Nueva gestión"},{"nombre":"REFUERZO ESTRUCTURAL,IMPERMEABIL.CUBIERTAS SECTOR 3 CONT.ETAPA2 GRAN PANTEON CEM","jurisdiccion":"Ministerio de Espacio Publico e Higiene Urbana","estado":"En ejecución","empresa":"DEMOLICIONES MITRE SRL","fecha_inicio":"2024-11-01","avance_pct":100.0,"monto":34335954840.0,"lat":-34.64801,"lon":-58.45266,"gestion":"Nueva gestión"},{"nombre":"CEMAR 4","jurisdiccion":"Ministerio de Salud","estado":"En ejecución","empresa":"INMAC INGENIERIA Y ARQUITECTURA S.A. - TECMA S.A. - CEMAR 4 U. T.","fecha_inicio":"2025-02-06","avance_pct":62.1,"monto":34921717180.0,"lat":-34.58059,"lon":-58.40749,"gestion":"Nueva gestión"},{"nombre":"Remodelacion UCO del Htal Santojanni","jurisdiccion":"Ministerio de Salud","estado":"En ejecución","empresa":"TALA CONSTRUCCIONES S.A","fecha_inicio":"2024-12-09","avance_pct":100.3,"monto":11242680320.0,"lat":-34.64887,"lon":-58.51518,"gestion":"Nueva gestión"},{"nombre":"Reparacion de cubiertas Internacion Ay B del Htal Zubizarreta","jurisdiccion":"Ministerio de Salud","estado":"En ejecución","empresa":"INGENIERIA Y ARQUITECTURA S.A. (I.A.S.A.)","fecha_inicio":"2024-12-09","avance_pct":100.0,"monto":3534528760.0,"lat":-34.60014,"lon":-58.51074,"gestion":"Nueva gestión"},{"nombre":"Obras vs - Esc. Téc. Nº 6 \"Fernando Fader\" - DE 12 - UG 7 - Yerbal 2750","jurisdiccion":"Ministerio de Educación","estado":"En ejecución","empresa":"HERA SRL","fecha_inicio":"2024-10-15","avance_pct":98.4,"monto":16987401210.0,"lat":-34.62902,"lon":-58.47076,"gestion":"Nueva gestión"},{"nombre":"EJECUCIÓN,REHABILITACIÓN,MANTENIMIENTO E INTERVENCIÓN PUNTUAL-MANZANA 5-SECTOR F","jurisdiccion":"Ministerio de Desarrollo Humano y Hábitat","estado":"En ejecución","empresa":"BLUE STEEL S. A.","fecha_inicio":"2024-10-16","avance_pct":100.0,"monto":13566167290.0,"lat":-34.58176,"lon":-58.37965,"gestion":"Nueva gestión"},{"nombre":"POLIDEPORTIVO RODNEY","jurisdiccion":"Jefatura de Gabinete de Ministros","estado":"En ejecución","empresa":"NAKU CONSTRUCCIONES SRL - ALTOTE SA - RODNEY - UT","fecha_inicio":"2025-02-10","avance_pct":60.5,"monto":25310920200.0,"lat":-34.59177,"lon":-58.45239,"gestion":"Nueva gestión"},{"nombre":"Complementaria Parcelas FE-0007-067 y YP-032A-035","jurisdiccion":"Ministerio de Desarrollo Humano y Hábitat","estado":"En ejecución","empresa":"DEMOLICIONES MITRE SRL","fecha_inicio":"2024-11-11","avance_pct":100.0,"monto":5568523570.0,"lat":-34.58176,"lon":-58.37965,"gestion":"Nueva gestión"},{"nombre":"REMODELACION: PLANTA BAJA DEL MINISTERIO DE SEGURIDAD DE LA CIUDAD DE BUENOS AIR","jurisdiccion":"Ministerio de Seguridad","estado":"En ejecución","empresa":"MIAVASA S.A.","fecha_inicio":"2025-03-26","avance_pct":100.0,"monto":2008561100.0,"lat":-34.64018,"lon":-34.64018,"gestion":"Nueva gestión"},{"nombre":"Obras vs - Esc. Prim. Com. Nº 28/ JIN C (EPC) c 28/04 DE 4 UG 4 - José A. S. Fei","jurisdiccion":"Ministerio de Educación","estado":"En ejecución","empresa":"FILIP S.A.","fecha_inicio":"2025-01-07","avance_pct":98.8,"monto":14190000000.0,"lat":-34.64406,"lon":-58.38033,"gestion":"Nueva gestión"},{"nombre":"EJEC DE INFRAESTRUCTURA EN TRAMOS DEL BPCM SECTOR GUEMES TRAMO 3 DE DICIEMBRE","jurisdiccion":"Ministerio de Desarrollo Humano y Hábitat","estado":"En ejecución","empresa":"DESOBSTRUCTORA ARGENTINA S.A","fecha_inicio":"2025-05-05","avance_pct":83.2,"monto":7153440560.0,"lat":-34.58176,"lon":-58.37965,"gestion":"Nueva gestión"},{"nombre":"EJEC DE INFRAESTRUCTURA EN TRAMOS DEL BPCM SECTOR DIAGUITAS","jurisdiccion":"Ministerio de Desarrollo Humano y Hábitat","estado":"En ejecución","empresa":"DESOBSTRUCTORA ARGENTINA S.A","fecha_inicio":"2025-05-05","avance_pct":100.0,"monto":5974412820.0,"lat":-34.58176,"lon":-58.37965,"gestion":"Nueva gestión"},{"nombre":"RAMAL JOSE MARTI II","jurisdiccion":"Ministerio de Infraestructura","estado":"En ejecución","empresa":"CECOSA S.A.","fecha_inicio":"2024-12-23","avance_pct":35.7,"monto":86637741810.0,"lat":-34.6301,"lon":-58.4687,"gestion":"Nueva gestión"},{"nombre":"REGULACION Y EFICIENCIA ARROYO MEDRANO TRAMO DE 4 Y 5 CELDAS","jurisdiccion":"Ministerio de Infraestructura","estado":"En ejecución","empresa":"AUTOMAT ARGENTINA S. A.","fecha_inicio":"2025-03-05","avance_pct":38.8,"monto":53580417260.0,"lat":-34.54785,"lon":-58.46767,"gestion":"Nueva gestión"},{"nombre":"RAMAL LARRALDE-CIUDAD DE LA PAZ","jurisdiccion":"Ministerio de Infraestructura","estado":"En ejecución","empresa":"COARCO SOCIEDAD ANONIMA","fecha_inicio":"2024-12-23","avance_pct":77.5,"monto":96687884600.0,"lat":-34.5533,"lon":-58.47603,"gestion":"Nueva gestión"},{"nombre":"COMPLETAMIENTO Y FINALIZACION CPF VII -PARTIDO DE MARCOS PAZ ETAPA 4","jurisdiccion":"Ministerio de Infraestructura","estado":"En ejecución","empresa":"CRIBA SA","fecha_inicio":"2024-12-23","avance_pct":90.6,"monto":969847887800.0,"lat":-34.86795,"lon":-58.8195,"gestion":"Nueva gestión"},{"nombre":"Calle Verde Tucumán","jurisdiccion":"Ministerio de Espacio Publico e Higiene Urbana","estado":"En ejecución","empresa":"VERDE INTEGRAL S.A.","fecha_inicio":"2025-01-01","avance_pct":94.3,"monto":60398829530.0,"lat":-34.59527,"lon":-58.37198,"gestion":"Nueva gestión"},